amenity_name,lat,lng,building,address,postal
100 AM,1.274588218,103.8434707,,,
313@Somerset,1.301014364,103.8383607,,,
Aperia,1.310473668,103.8643132,,,
Balestier Hill Shopping Centre,1.325595948,103.8425716,,,
Bugis Cube,1.298140834,103.8556353,,,
Bugis Junction,1.299112875,103.8554112,,,
Bugis+,1.300951715,103.8551726,,,
Capitol Piazza,1.293078848,103.851262,,,
Cathay Cineleisure Orchard,1.301463935,103.8364638,,,
The Centrepoint,1.301450455,103.8400341,,,
City Square Mall,1.311382719,103.8566269,,,
CityLink Mall,1.292603494,103.8543161,,,
Duo,1.299534349,103.8584017,,,
Far East Plaza,1.307304689,103.8338184,,,
Funan,1.291347597,103.8499898,,,
Great World City,1.293422727,103.8320221,,,
HDB Hub,1.33201387,103.8498495,,,
ION Orchard,1.303992869,103.8319889,,,
Junction 8,1.350172432,103.8485537,,,
Knightsbridge,1.302983123,103.8362839,,,
Liat Towers,1.305087227,103.8307226,,,
Lucky Plaza,1.30446379,103.8340052,,,
Marina Bay Sands,1.284662036,103.8610059,,,
The Shoppes at Marina Bay Sands,1.28423496,103.8589823,,,
Marina Bay Link Mall,1.280031134,103.8542849,,,
Marina Square,1.291594805,103.8570487,,,
Millenia Walk,1.292679269,103.8603029,,,
Ngee Ann City,1.30227273,103.8348995,,,
Orchard Central,1.300838908,103.8394347,,,
Orchard Gateway,1.30160117,103.8388689,,,
Orchard Plaza,1.301257294,103.8411501,,,
Midpoint Orchard,1.301787785,103.8386598,,,
Palais Renaissance,1.306654845,103.829588,,,
People's Park Centre,1.285647814,103.8438616,,,
People's Park Complex,1.284044879,103.8425908,,,
Plaza Singapura,1.300820718,103.8450673,,,
Raffles City,1.29397671,103.8533336,,,
Scotts Square,1.30579943,103.8330747,,,
Sim Lim Square,1.302906588,103.8530319,,,
Singapore Shopping Centre,1.286497018,103.8446287,,,
The South Beach,1.294988044,103.8562762,,,
Square 2,1.2782295,103.8508125,,,
Sunshine Plaza,1.300467354,103.8505561,,,
Suntec City,1.293501325,103.8573075,,,
Tanglin Mall,1.304853421,103.8238835,,,
Tanjong Pagar Centre,1.275596198,103.8423932,,,
Tekka Centre,1.306710983,103.8501344,,,
The Adelphi,1.291185037,103.8511843,,,
The Paragon,1.303872309,103.8358575,,,
Tiong Bahru Plaza,1.286458895,103.8270153,,,
The Poiz,1.332027297,103.8686595,,,
Thomson Plaza,1.354362827,103.8303094,,,
United Square,1.31719451,103.8436114,,,
Thomson V,1.353194953,103.8355647,,,
Velocity@Novena Square,1.319789492,103.8440336,,,
Wheelock Place,1.304676287,103.830642,,,
Wisma Atria,1.303704774,103.8332058,,,
Zhongshan Mall,1.326945045,103.8465544,,,
Bedok Mall,1.324750542,103.9291892,,,
Century Square,1.35227804,103.9437277,,,
Our Tampines Hub,1.352180469,103.940598,,,
Changi City Point,1.334083638,103.962946,,,
Downtown East,1.376590365,103.9556894,,,
Djitsun Mall Bedok,1.326119703,103.9295545,,,
Eastpoint Mall,1.342705924,103.9530246,,,
Jewel Changi Airport,1.360062894,103.9899892,,,
Katong Shopping Centre,1.303820402,103.90104,,,
Katong Square,1.304776839,103.9046177,,,
Kallang Wave Mall,1.303075152,103.8731497,,,
Leisure Park Kallang,1.302221774,103.8761527,,,
i12 Katong,1.305223062,103.9050439,,,
Parkway Parade,1.301069755,103.9052795,,,
Paya Lebar Square,1.31881487,103.8925808,,,
Roxy Square,1.304325999,103.9040511,,,
Singpost Centre,1.318996669,103.8948949,,,
Tampines 1,1.346335358,103.9339796,,,
Tampines Mall,1.352593614,103.944786,,,
White Sands,1.372287616,103.9497339,,,
City Plaza,1.314708663,103.8935086,,,
Elias Mall,1.377905331,103.9423358,,,
Loyang Point,1.367066342,103.9646356,,,
888 Plaza,1.437118561,103.7953161,,,
Admiralty Place,1.440420086,103.8015418,,,
AMK Hub,1.369255114,103.8484641,,,
Canberra Plaza,1.443495445,103.8303454,,,
Causeway Point,1.435900079,103.7857958,,,
Woodlands Civic Centre,1.435150244,103.7868161,,,
Broadway Plaza,1.371937291,103.8459494,,,
Jubilee Square,1.371785586,103.8478376,,,
Junction Nine,1.43312284,103.841661,,,
Marsiling Mall,1.433543181,103.7798819,,,
Northpoint City,1.428225609,103.83642,,,
Sembawang Shopping Centre,1.441853253,103.8248324,,,
Sun Plaza,1.448231135,103.8195237,,,
Vista Point,1.430801139,103.7941048,,,
Wisteria Mall,1.417989691,103.8413173,,,
Woodlands Mart,1.44564787,103.7981623,,,
Woodlands North Plaza,1.442753343,103.790548,,,
Waterway Point,1.406379336,103.9021722,,,
Compass One,1.392053142,103.8950705,,,
Hougang Mall,1.372483087,103.8937881,,,
Heartland Mall,1.359544509,103.8851691,,,
NEX,1.350769353,103.8722961,,,
Buangkok Square,1.384334266,103.8816231,,,
Greenwich V,1.387395394,103.869136,,,
Hougang 1,1.356642846,103.8898289,,,
Hougang Green Shopping Mall,1.379317835,103.8878471,,,
Hougang Rivercourt,1.362205919,103.8947421,,,
myVillage At Serangoon Garden,1.365114906,103.8651595,,,
Northshore Plaza,1.416761272,103.9020744,,,
Oasis Terraces,1.402780157,103.9132151,,,
Punggol Plaza,1.394237197,103.9130473,,,
Rivervale Mall,1.392197778,103.9044716,,,
Rivervale Plaza,1.385504208,103.9019884,,,
The Seletar Mall,1.391470154,103.8761255,,,
Upper Serangoon Shopping Centre,1.353480823,103.8788281,,,
Beauty World Centre,1.342412642,103.7765394,,,
Beauty World Plaza,1.341800186,103.7762594,,,
Bukit Panjang Plaza,1.379882914,103.7643778,,,
Bukit Timah Plaza,1.338631653,103.7785854,,,
Fajar Shopping Centre,1.383574699,103.7708685,,,
Greenridge Shopping Centre,1.385405693,103.7662285,,,
Hillion Mall,1.378411651,103.7638295,,,
HillV2,1.362674508,103.7641729,,,
Junction 10,1.38055128,103.760107,,,
Keat Hong Shopping Centre,1.377366074,103.7443936,,,
Limbang Shopping Centre,1.392073887,103.7430996,,,
Lot One,1.385069923,103.7452389,,,
Rail Mall,1.357730502,103.7681377,,,
Sunshine Place,1.377897277,103.7390155,,,
Teck Whye Shopping Centre,1.38004753,103.7524838,,,
West Mall,1.350375416,103.7491239,,,
Yew Tee Point,1.397057415,103.7466621,,,
Yew Tee Square,1.398369427,103.7471885,,,
321 Clementi,1.31200212,103.7649867,,,
The Clementi Mall,1.314896196,103.7644231,,,
IMM,1.334875261,103.7468948,,,
JCube,1.333323126,103.7401871,,,
Jem,1.333059993,103.7435037,,,
Westgate,1.334157676,103.7427665,,,
Jurong Point,1.339452004,103.706685,,,
Pioneer Mall,1.341692392,103.6971748,,,
The Star Vista,1.306815007,103.7884627,,,
Alexandra Central,1.287283209,103.8052834,,,
Anchorpoint,1.28893478,103.8056078,,,
Boon Lay Shopping Centre,1.346373764,103.7124728,,,
Grantral Mall,1.314270439,103.7651475,,,
Fairprice Hub,1.353495936,103.9401394,,,
Gek Poh Shopping Centre,1.348741647,103.6977396,,,
Rochester Mall,1.305407656,103.7884467,,,
Taman Jurong Shopping Centre,1.334844875,103.720462,,,
West Coast Plaza,1.303586225,103.7661038,,,
Queensway Shopping Centre,1.287617926,103.8033911,,,
Adam Food Centre,1.32415985259558,103.814165924136,ADAM FOOD CENTRE,ADAM FOOD CENTRE,289876
Amoy Street Food Centre,1.27923120961067,103.846619273705,DBS AMOY STREET FOOD CENTRE,DBS AMOY STREET FOOD CENTRE,069111
Bedok Food Centre,1.32034716834128,103.955480570427,BEDOK FOOD CENTRE,BEDOK FOOD CENTRE,469572
Beo Crescent Market,1.28883089150258,103.827353892228,BEO CRESCENT MARKET,BEO CRESCENT MARKET,169982
Berseh Food Centre,1.30734410918998,103.856888783497,DBS BERSEH FOOD CENTRE,DBS BERSEH FOOD CENTRE,208877
Bukit Timah Market,1.33945242854685,103.776007306701,BUKIT TIMAH MARKET,BUKIT TIMAH MARKET,588215
Chomp Chomp Food Centre,1.36423252476886,103.86652701738,CHOMP CHOMP FOOD CENTRE,CHOMP CHOMP FOOD CENTRE,557269
Commonwealth Crescent Market,1.30690013206335,103.800367271218,COMMONWEALTH CRESCENT MARKET,COMMONWEALTH CRESCENT MARKET,149644
Dunman Food Centre,1.30941788760759,103.901825408227,DUNMAN FOOD CENTRE,DUNMAN FOOD CENTRE,424768
East Coast Lagoon Food Village,1.30690573552745,103.935137935777,DBS EAST COAST LAGOON FOOD VILLAGE,DBS EAST COAST LAGOON FOOD VILLAGE,468960
Geylang Serai Market,1.31673634930331,103.898227885022,UOB GEYLANG SERAI MARKET,UOB GEYLANG SERAI MARKET,402001
Golden Mile Food Centre,1.30314175320333,103.863877615334,GOLDEN MILE FOOD CENTRE,GOLDEN MILE FOOD CENTRE,199583
Holland Village Market & Food Centre,1.31107297402127,103.794876419662,HOLLAND VILLAGE MARKET & FOOD CENTRE,HOLLAND VILLAGE MARKET & FOOD CENTRE,277700
Kallang Estate Market,1.30734398370473,103.884017699319,KALLANG ESTATE FRESH MARKET AND FOOD CENTRE,KALLANG ESTATE FRESH MARKET AND FOOD CENTRE,397972
Margaret Drive Hawker Centre,1.29742585102203,103.804710471304,MARGARET DRIVE HAWKER CENTRE,MARGARET DRIVE HAWKER CENTRE,142038
Market Street Hawker Centre,1.28405945173514,103.84988238435,MARKET STREET HAWKER CENTRE,MARKET STREET HAWKER CENTRE,048947
Marsiling Mall Hawker Centre,1.43354318137534,103.77988189197,MARSILING MALL HAWKER CENTRE,MARSILING MALL HAWKER CENTRE,738623
Maxwell Food Centre,1.28033142727315,103.844747227479,MAXWELL FOOD CENTRE,MAXWELL FOOD CENTRE,069184
Newton Food Centre,1.31211427254136,103.839813174478,OCBC NEWTON FOOD CENTRE,OCBC NEWTON FOOD CENTRE,229495
North Bridge Road Market & Food Centre,1.30563433652207,103.863909336656,NORTH BRIDGE ROAD MARKET,NORTH BRIDGE ROAD MARKET,198783
Pasir Panjang Food Centre,1.27591797439292,103.791410908656,PASIR PANJANG FOOD CENTRE,PASIR PANJANG FOOD CENTRE,118543
Sembawang Hills Food Centre,1.37231949296183,103.829018145089,SEMBAWANG HILLS FOOD CENTRE,SEMBAWANG HILLS FOOD CENTRE,574419
Serangoon Garden Market,1.36308501111104,103.866724949118,SERANGOON GARDEN MARKET,SERANGOON GARDEN MARKET,555945
Taman Jurong Market & Food Centre,1.3347210661928,103.721583797451,TAMAN JURONG MARKET & FOOD CENTRE,TAMAN JURONG MARKET & FOOD CENTRE,618499
Tanglin Halt Market,1.30054407507427,103.797737980247,TANGLIN HALT MARKET,TANGLIN HALT MARKET,148813
Tiong Bahru Market,1.28468599168094,103.832421566287,DBS TIONG BAHRU MARKET,DBS TIONG BAHRU MARKET,168898
Zion Riverside Food Centre,1.2923422114207,103.831189023623,ZION RIVERSIDE FOOD CENTRE,ZION RIVERSIDE FOOD CENTRE,247792
ABC Brickworks Market & Food Centre,1.28688297261475,103.808131274161,ABC BRICKWORKS MARKET & FOOD CENTRE,ABC BRICKWORKS MARKET & FOOD CENTRE,150006
Albert Centre Market & Food Centre,1.30100149635856,103.854211650138,ALBERT CENTRE MARKET & FOOD CENTRE,ALBERT CENTRE MARKET & FOOD CENTRE,180270
Alexandra Village Food Centre,1.28630594274136,103.804492637648,ALEXANDRA VILLAGE FOOD CENTRE,ALEXANDRA VILLAGE FOOD CENTRE,150120
 117 Aljunied Ave 2,1.32064636781982,103.88702414,MARKET & HAWKER CENTRE (BLK 117 ALJUNIED AVE 2),MARKET & HAWKER CENTRE (BLK 117 ALJUNIED AVE 2),380117
 226D Ang Mo Kio Ave 1,1.36680096218071,103.839152274224,KEBUN BARU MALL,KEBUN BARU MALL,564226
 341 Ang Mo Kio Ave 1,1.36410720984459,103.848242165861,TECK GHEE COURT,TECK GHEE COURT,560341
 160 Ang Mo Kio Ave 4,1.37428262453942,103.838977213825,DBS ANG MO KIO AVENUE 4,DBS ANG MO KIO AVENUE 4,560160
 628 Ang Mo Kio Ave 4,1.38098761665454,103.840628087484,ANG MO KIO 628 MARKET,ANG MO KIO 628 MARKET,560628
 724 Ang Mo Kio Ave 6,1.37217258545171,103.846510310202,MARKET & HAWKER CENTRE (BLK 724 ANG MO KIO AVE 6),MARKET & HAWKER CENTRE (BLK 724 ANG MO KIO AVE 6),560724
 409 Ang Mo Kio Ave 10,1.36265410749321,103.855288297631,MARKET & HAWKER CENTRE (BLK 409 ANG MO KIO AVE 10),MARKET & HAWKER CENTRE (BLK 409 ANG MO KIO AVE 10),560409
 453A Ang Mo Kio Ave 10,1.3682477887765,103.856361649863,CHONG BOON MARKET AND FOOD CENTRE,CHONG BOON MARKET AND FOOD CENTRE,561453
 527 Ang Mo Kio Ave 10,1.37277209302753,103.854457955288,CHENG SAN MARKET AND COOKED FOOD CENTRE,CHENG SAN MARKET AND COOKED FOOD CENTRE,560527
 226H Ang Mo Kio Street 22,1.36717874094695,103.840157741978,KEBUN BARU FOOD CENTRE,KEBUN BARU FOOD CENTRE,568226
 216 Bedok North Street 1,1.32706274205746,103.933217970746,MARKET & HAWKER CENTRE (BLK 216 BEDOK NORTH STREET 1),MARKET & HAWKER CENTRE (BLK 216 BEDOK NORTH STREET 1),460216
 511 Bedok North Street 3,1.33321993297265,103.930581522776,KAKI BUKIT 511 MARKET AND FOOD CENTRE,KAKI BUKIT 511 MARKET AND FOOD CENTRE,460511
 538 Bedok North Street 3,1.3320672771228,103.924621314971,MARKET & HAWKER CENTRE (BLK 538 BEDOK NORTH STREET 3),MARKET & HAWKER CENTRE (BLK 538 BEDOK NORTH STREET 3),460538
 85 Bedok North Street 4,1.33200482399436,103.93876843919,FENGSHAN CENTRE,FENGSHAN CENTRE,460085
 630 Bedok Reservoir Road,1.33277279217212,103.914190840298,PASAR MAKAN @ RESERVOIR,PASAR MAKAN @ RESERVOIR,470630
 16 Bedok South Road,1.32055221938711,103.935539171613,MARKET & HAWKER CENTRE (BLK 16 BEDOK SOUTH ROAD ),MARKET & HAWKER CENTRE (BLK 16 BEDOK SOUTH ROAD ),460016
 29 Bendemeer Road,1.31921667890113,103.863020922593,BENDEMEER MARKET AND FOOD CENTRE,BENDEMEER MARKET AND FOOD CENTRE,330029
 221A/B Boon Lay Place,1.34522406568893,103.712800680774,BOON LAY PLACE MARKET AND FOOD VILLAGE,BOON LAY PLACE MARKET AND FOOD VILLAGE,641221
 163 Bukit Merah Central,1.28370343137554,103.817051522816,SINGHEALTH POLYCLINICS (BUKIT MERAH POLYCLINIC),SINGHEALTH POLYCLINICS (BUKIT MERAH POLYCLINIC),150163
 115 Bukit Merah View,1.28550445567433,103.821823256087,MARKET & HAWKER CENTRE (BLK 115 BUKIT MERAH VIEW),MARKET & HAWKER CENTRE (BLK 115 BUKIT MERAH VIEW),151115
 2 & 3 Changi Village Road,1.29010611229018,103.854640070146,02029 (BUS STOP),02029 (BUS STOP),NIL
Chinatown Complex Market & Hawker Centre,1.28223521144332,103.843177640795,CHINATOWN COMPLEX MARKET,CHINATOWN COMPLEX MARKET,050335
Chong Pang Market & Food Centre,1.43144775158984,103.828537671885,CHONG PANG MARKET & FOOD CENTRE,CHONG PANG MARKET & FOOD CENTRE,760104
 79/79A Circuit Road,1.3265970672963,103.885052285736,HAWKER CENTRE (BLKS 79/79A CIRCUIT ROAD),HAWKER CENTRE (BLKS 79/79A CIRCUIT ROAD),370079
 80 Circuit Road,1.32783414615937,103.887102669236,CIRCUIT ROAD MARKET AND FOOD CENTRE,CIRCUIT ROAD MARKET AND FOOD CENTRE,370080
 89 Circuit Road,1.32357971400582,103.885438842474,MARKET & HAWKER CENTRE (BLK 89 CIRCUIT ROAD),MARKET & HAWKER CENTRE (BLK 89 CIRCUIT ROAD),370089
 353 Clementi Ave 2,1.31437917978956,103.770919561136,MARKET & HAWKER CENTRE (BLK 353 CLEMENTI AVE 2),MARKET & HAWKER CENTRE (BLK 353 CLEMENTI AVE 2),120353
 448 Clementi Ave 3,1.31331969319644,103.764517192874,MARKET & HAWKER CENTRE (BLK 448 CLEMENTI AVENUE 3),MARKET & HAWKER CENTRE (BLK 448 CLEMENTI AVENUE 3),120448
 726 Clementi West Street 2,1.30381073184127,103.764250748436,MARKET & HAWKER CENTRE (BLK 726 CLEMENTI WEST STREET 2),MARKET & HAWKER CENTRE (BLK 726 CLEMENTI WEST STREET 2),120726
 7 Empress Road,1.31624574394049,103.805636419935,DBS EMPRESS ROAD,DBS EMPRESS ROAD,260007
 4A Eunos Crescent,1.32033126010096,103.904256478426,MARKET & HAWKER CENTRE (BLK 4A EUNOS CRESCENT),MARKET & HAWKER CENTRE (BLK 4A EUNOS CRESCENT),402004
 69 Geylang Bahru,1.32146311046779,103.870005014547,GEYLANG BAHRU MARKET AND FOOD CENTRE,GEYLANG BAHRU MARKET AND FOOD CENTRE,330069
 20 Ghim Moh Road,1.31099663218896,103.78823030662,MARKET & HAWKER CENTRE (BLK 20 GHIM MOH ROAD),MARKET & HAWKER CENTRE (BLK 20 GHIM MOH ROAD),270020
 13/14 Haig Road,1.31514204972284,103.895609544204,MARKET & HAWKER CENTRE (BLKS 13/14 HAIG ROAD),MARKET & HAWKER CENTRE (BLKS 13/14 HAIG ROAD),430013
 22A Havelock Road,1.28797051657173,103.829623413554,HAVELOCK ROAD COOKED FOOD CENTRE,HAVELOCK ROAD COOKED FOOD CENTRE,161022
 44 Holland Drive,1.30811780015992,103.792773769341,HOLLAND DRIVE MARKET AND FOOD CENTRE,HOLLAND DRIVE MARKET AND FOOD CENTRE,270044
Hong Lim Market & Food Centre,1.28532379322674,103.845776735598,HONG LIM FOOD CENTRE AND MARKET,HONG LIM FOOD CENTRE AND MARKET,051531
 105 Hougang Ave 1,1.35408273910145,103.890130407955,HOUGANG 105 HAINANESE VILLAGE CENTRE,HOUGANG 105 HAINANESE VILLAGE CENTRE,530105
 4A Jalan Batu,1.30236034827101,103.883909473726,JALAN BATU HAWKER CENTRE,JALAN BATU HAWKER CENTRE,432004
 112 Jalan Bukit Merah,1.28000480135122,103.82601329621,MARKET & HAWKER CENTRE (BLK 112 JALAN BUKIT MERAH),MARKET & HAWKER CENTRE (BLK 112 JALAN BUKIT MERAH),160112
 1 Jalan Kukoh,1.28825209188554,103.839940269227,KUKOH 21 FOOD CENTRE,KUKOH 21 FOOD CENTRE,161001
 347 Jurong East Ave 1,1.34531253284138,103.731579765339,YUHUA MARKET AND HAWKER CENTRE,YUHUA MARKET AND HAWKER CENTRE,600347
 254 Jurong East Street 24,1.34348818520494,103.73773841183,YUHUA VILLAGE MARKET AND FOOD CENTRE,YUHUA VILLAGE MARKET AND FOOD CENTRE,600254
 505 Jurong West Street 52,1.34965729130746,103.718443677825,MARKET & HAWKER CENTRE (BLK 505 JURONG WEST STREET 52),MARKET & HAWKER CENTRE (BLK 505 JURONG WEST STREET 52),640505
Kovan Market & Food Centre,1.35908384091048,103.886055368064,KOVAN HOUGANG MARKET AND FOOD CENTRE,KOVAN HOUGANG MARKET AND FOOD CENTRE,530209
 84 Marine Parade Central,1.30228520968842,103.906288669909,MARINE PARADE CENTRAL MARKET AND FOOD CENTRE,MARINE PARADE CENTRAL MARKET AND FOOD CENTRE,440084
 50A Marine Terrace,1.30572973591916,103.915737035334,MARKET & HAWKER CENTRE (BLK 50A MARINE TERRACE),MARKET & HAWKER CENTRE (BLK 50A MARINE TERRACE),441050
 20/21 Marsiling Lane,1.44383165244262,103.777210383669,MARKET & HAWKER CENTRE (BLKS 20/21 MARSILING LANE),MARKET & HAWKER CENTRE (BLKS 20/21 MARSILING LANE),730021
 159 Mei Chin Road,1.29323624443735,103.802903871889,BLK 139 MEI CHIN ROAD,BLK 139 MEI CHIN ROAD,140159
 58 New Upper Changi Road,1.32420087334002,103.941125277547,MARKET & HAWKER CENTRE (BLK 58 NEW UPPER CHANGI ROAD),MARKET & HAWKER CENTRE (BLK 58 NEW UPPER CHANGI ROAD),461058
 208B New Upper Changi Road,1.32478236985627,103.930570304559,HAWKER CENTRE (BLK 208B NEW UPPER CHANGI ROAD),HAWKER CENTRE (BLK 208B NEW UPPER CHANGI ROAD),462208
 51 Old Airport Road,1.3082518471287,103.88580870609,51 OLD AIRPORT ROAD FOOD CENTRE AND SHOPPING MALL,51 OLD AIRPORT ROAD FOOD CENTRE AND SHOPPING MALL,390051
Pek Kio Market & Food Centre,1.31613128029458,103.850232935162,PEK KIO MARKET & FOOD CENTRE,PEK KIO MARKET & FOOD CENTRE,211041
People's Park Food Centre,1.2848558843058,103.842599920236,DBS PEOPLE'S PARK COMPLEX FOOD CENTRE,DBS PEOPLE'S PARK COMPLEX FOOD CENTRE,050032
 79 Redhill Lane,1.28784317298064,103.818352097299,REDHILL MARKET,REDHILL MARKET,150079
 85 Redhill Lane,1.28730751501552,103.818311195307,REDHILL FOOD CENTRE,REDHILL FOOD CENTRE,150085
 320 Shunfu Road,1.35200745401591,103.837031862103,MARKET & HAWKER CENTRE (BLK 320 SHUNFU ROAD),MARKET & HAWKER CENTRE (BLK 320 SHUNFU ROAD),570320
 49 Sims Place,1.31703502375324,103.879309854774,SIMS VISTA MARKET AND FOOD CENTRE,SIMS VISTA MARKET AND FOOD CENTRE,380049
 137 Tampines Street 11,1.34537347373749,103.944629422828,TAMPINES ROUND MARKET AND FOOD CENTRE,TAMPINES ROUND MARKET AND FOOD CENTRE,521137
 6 Tanjong Pagar Plaza,1.27661464758769,103.843167023188,MARKET & HAWKER CENTRE (BLK 6 TANJONG PAGAR PLAZA),MARKET & HAWKER CENTRE (BLK 6 TANJONG PAGAR PLAZA),081006
 37A Teban Gardens Road,1.32083109341424,103.742748119105,TEBAN GARDENS MARKET AND FOOD CENTRE,TEBAN GARDENS MARKET AND FOOD CENTRE,601037
Tekka Market,1.30671098278725,103.85013440636,ZHUJIAO CENTRE (TEKKA MARKET),ZHUJIAO CENTRE (TEKKA MARKET),210661
 11 Telok Blangah Crescent,1.27736813225761,103.818651524334,MARKET & HAWKER CENTRE (BLK 11 TELOK BLANGAH CRESCENT),MARKET & HAWKER CENTRE (BLK 11 TELOK BLANGAH CRESCENT),090011
 79 Telok Blangah Drive,1.27336490550026,103.807621587927,UOB TELOK BLANGAH DRIVE,UOB TELOK BLANGAH DRIVE,100079
 82 Telok Blangah Drive,1.27368227268844,103.807651779829,WEST COAST TOWN COUNCIL (TELOK BLANGAH SERVICE CENTRE),WEST COAST TOWN COUNCIL (TELOK BLANGAH SERVICE CENTRE),100082
 36 Telok Blangah Rise,1.27260703348585,103.822028389533,DBS TELOK BLANGAH RISE,DBS TELOK BLANGAH RISE,090036
 127 Toa Payoh Lorong 1,1.33804625287728,103.844733922883,DBS TOA PAYOH LORONG 1-127,DBS TOA PAYOH LORONG 1-127,310127
 74 Toa Payoh Lorong 4,1.3345507487214,103.852003509176,TOA PAYOH VISTA MARKET,TOA PAYOH VISTA MARKET,310074
 93 Toa Payoh Lorong 4,1.33847469611073,103.849513448853,MARKET & HAWKER CENTRE (BLK 93 TOA PAYOH LORONG 4),MARKET & HAWKER CENTRE (BLK 93 TOA PAYOH LORONG 4),310093
 75 Toa Payoh Lorong 5,1.336020767662,103.852956988062,HAWKER CENTRE (BLK 75 TOA PAYOH LORONG 5),HAWKER CENTRE (BLK 75 TOA PAYOH LORONG 5),310075
 22 Toa Payoh Lorong 7,1.33538261333779,103.857003709119,KIM KEAT PALM MARKET AND FOOD CENTRE,KIM KEAT PALM MARKET AND FOOD CENTRE,310022
 210 Toa Payoh Lorong 8,1.34021600857625,103.85487256444,BLK 210 LORONG 8 TOA PAYOH MARKET & FOOD CENTRE,BLK 210 LORONG 8 TOA PAYOH MARKET & FOOD CENTRE,310210
 17 Upper Boon Keng Road,1.31502841514731,103.87162041674,UPPER BOON KENG MARKET AND FOOD CENTRE,UPPER BOON KENG MARKET AND FOOD CENTRE,380017
 502 West Coast Drive,1.31190695723944,103.759128018939,AYER RAJAH MARKET,AYER RAJAH MARKET,120502
 503 West Coast Drive,1.31180308926424,103.759751405542,AYER RAJAH FOOD CENTRE,AYER RAJAH FOOD CENTRE,120503
 90 Whampoa Drive,1.32306493801159,103.854996183556,WHAMPOA DRIVE MAKAN PLACE,WHAMPOA DRIVE MAKAN PLACE,320090
 91 Whampoa Drive,1.32342818718207,103.854060197812,WHAMPOA DRIVE MAKAN PLACE,WHAMPOA DRIVE MAKAN PLACE,320091
Ci Yuan Hawker Centre,1.37542901578859,103.882977997705,CI YUAN HAWKER CENTRE,CI YUAN HAWKER CENTRE,538776
Bukit Panjang Hawker Centre & Market,1.37759742308947,103.772491526747,BUKIT PANJANG HAWKER CENTRE,BUKIT PANJANG HAWKER CENTRE,679947
Hawker Centre @ Our Tampines Hub,1.35354740485205,103.940381104547,OUR TAMPINES HUB HAWKER CENTRE,OUR TAMPINES HUB HAWKER CENTRE,528523
Kampung Admiralty Hawker Centre,1.43991608263415,103.800701203964,KAMPUNG ADMIRALTY HAWKER CENTRE,KAMPUNG ADMIRALTY HAWKER CENTRE,730676
Yishun Park Hawker Centre,1.42498786287366,103.844747525064,YISHUN PARK HAWKER CENTRE,YISHUN PARK HAWKER CENTRE,768867
Jurong West Hawker Centre,1.34126410393954,103.697241852189,JURONG WEST HAWKER CENTRE,JURONG WEST HAWKER CENTRE,648202
Pasir Ris Central Hawker Centre,1.37347252064326,103.951571342467,PASIR RIS CENTRAL HAWKER CENTRE,PASIR RIS CENTRAL HAWKER CENTRE,519641
Fernvale Hawker Centre,1.39165412570696,103.877189699517,FERNVALE HAWKER CENTRE & MARKET,FERNVALE HAWKER CENTRE & MARKET,797650
One Punggol,1.40874764582071,103.905169457582,ONE PUNGGOL,ONE PUNGGOL,828629
Senja Hawker Centre,1.38719400415283,103.761083976377,SENJA HAWKER CENTRE,SENJA HAWKER CENTRE,677632
Bukit Canberra Hawker Centre,1.44884901222355,103.822852017484,BUKIT CANBERRA HAWKER CENTRE,BUKIT CANBERRA HAWKER CENTRE,756973
Buangkok Hawker Centre,1.38370564829041,103.892308602589,BUANGKOK HAWKER CENTRE,BUANGKOK HAWKER CENTRE,544575
212 LORONG 8 TOA PAYOH ,1.34064293639026,103.85433449712,NIL,212 LORONG 8 TOA PAYOH SINGAPORE 310212,310212
345 CLEMENTI AVENUE 5 ,1.31770281154049,103.769076731999,NIL,345 CLEMENTI AVENUE 5 SINGAPORE 120345,120345
5001 BEACH ROAD ,1.3027512163519,103.865163649543,GOLDEN MILE COMPLEX,GOLDEN MILE COMPLEX,199588
342 TANJONG KATONG ROAD,1.30373387351391,103.89649832916,NIL,342 TANJONG KATONG ROAD SINGAPORE 437112,437112
930 YISHUN AVENUE 2 ,1.42924414326245,103.836107231373,MAYBANK MAYBANK@YISHUN,MAYBANK MAYBANK@YISHUN,769098
524A JELAPANG ROAD ,1.38529556526689,103.766170530147,DBS GREENRIDGE SHOPPING CENTRE,DBS GREENRIDGE SHOPPING CENTRE,671524
527D PASIR RIS STREET 51 ,1.36968625501963,103.947922425135,COSTA RIS,COSTA RIS,514527
829 TAMPINES STREET 81 ,1.34922100236977,103.934914286623,UOB TAMPINES ST 81,UOB TAMPINES ST 81,520829
2 FIRST STREET ,1.31284706410149,103.923788580901,SIGLAP V,SIGLAP V,458278
24 WATERLOO STREET ,1.29824653795901,103.850683298453,MAGHAIN ABOTH SYNAGOGUE,MAGHAIN ABOTH SYNAGOGUE,187950
81 CLEMENCEAU AVENUE ,1.29225958503296,103.842561023913,CITIBANK UE SQUARE,CITIBANK UE SQUARE,239917
233 LORONG 8 TOA PAYOH ,1.33828365922679,103.858467966719,TOA PAYOH EIGHT,TOA PAYOH EIGHT,310233
21 HOUGANG STREET 51 ,1.37931783499145,103.88784708944,UOB HOUGANG GREEN SHOPPING MALL,UOB HOUGANG GREEN SHOPPING MALL,538719
30 WOODLANDS AVENUE 1,1.42898765704375,103.780916973423,THE WOODGROVE,THE WOODGROVE,739065
266 SERANGOON CENTRAL DRIVE ,1.3532321297355,103.8714723783,NIL,266 SERANGOON CENTRAL DRIVE SINGAPORE 550266,550266
322 SUMANG WALK ,1.41124703512714,103.897501361265,PUNGGOL BAYVIEW,PUNGGOL BAYVIEW,820322
501 BUKIT TIMAH ROAD ,1.32257316934913,103.814245542255,CLUNY COURT,CLUNY COURT,259760
761 YISHUN STREET 72 ,1.42539842469037,103.833259035976,NIL,761 YISHUN STREET 72 SINGAPORE 760761,760761
88 DESKER ROAD,1.30849533074696,103.85574632461,DESKER ROAD CONSERVATION AREA,DESKER ROAD CONSERVATION AREA,209610
205 PETIR ROAD ,1.37343025396585,103.773924079454,NIL,205 PETIR ROAD SINGAPORE 670205,670205
544 JURONG WEST STREET 42 ,1.35239358298744,103.71575950591,NIL,544 JURONG WEST STREET 42 SINGAPORE 640544,640544
414 YISHUN RING ROAD ,1.42452849112151,103.84659554729,DBS NTUC YISHUN RING ROAD 1,DBS NTUC YISHUN RING ROAD 1,760414
548 WOODLANDS DRIVE 44 ,1.4308011390122,103.794104795966,OCBC VISTA POINT,OCBC VISTA POINT,730548
505 CANBERRA LINK ,1.45026201889682,103.822534715231,MONTREAL SPRING,MONTREAL SPRING,750505
8 TELOK BLANGAH CRESCENT ,1.27779539068994,103.819341303524,NIL,8 TELOK BLANGAH CRESCENT SINGAPORE 090008,090008
301 YISHUN AVENUE 2 ,1.42944580755283,103.835058273548,UOB YISHUN MRT STATION,UOB YISHUN MRT STATION,769093
176 ORCHARD ROAD ,1.30197836876806,103.839759023144,THE CENTREPOINT,THE CENTREPOINT,238843
201 TELOK KURAU ROAD ,1.31212247482399,103.911185983674,KURAU COURT,KURAU COURT,423910
395A BUKIT BATOK WEST AVENUE 5 ,1.36448974299463,103.751987145985,MULTI STOREY CAR PARK,MULTI STOREY CAR PARK,651395
330 TANJONG KATONG ROAD,1.30416447022908,103.896326993346,NIL,330 TANJONG KATONG ROAD SINGAPORE 437106,437106
44 JALAN MERAH SAGA ,1.31192195425084,103.796844037126,NIL,44 JALAN MERAH SAGA SINGAPORE 278116,278116
22 DEMPSEY ROAD,1.30679240314535,103.810185814417,DEMPSEY CLUSTER (TANGLIN VILLAGE),DEMPSEY CLUSTER (TANGLIN VILLAGE),249679
982 BUANGKOK CRESCENT ,1.38089498895572,103.879323168238,DBS BUANGKOK CRESCENT,DBS BUANGKOK CRESCENT,530982
32 TUAS VIEW SQUARE ,1.29865806391236,103.62808808355,NIL,32 TUAS VIEW SQUARE SINGAPORE 637778,637778
63 YUNG KUANG ROAD,1.33205938554958,103.722452881172,OCBC YUNG KUANG ROAD - FAIRPRICE,OCBC YUNG KUANG ROAD - FAIRPRICE,610063
32 SIGLAP DRIVE,1.31592846399653,103.91968880227,FRANKEL ESTATE,FRANKEL ESTATE,456157
3 ST. GEORGE'S ROAD ,1.3225873518737,103.861107276991,NIL,3 SAINT GEORGE'S ROAD SINGAPORE 320003,320003
11 PASIR RIS LINK ,1.37558830923856,103.960839727163,SEASTRAND,SEASTRAND,518180
201 YISHUN AVENUE 2 ,1.41758906054002,103.833061043125,DBS KHATIB MRT STATION,DBS KHATIB MRT STATION,769092
290 ORCHARD ROAD ,1.30372321739269,103.835240308455,DBS PARAGON SHOPPING CENTRE,DBS PARAGON SHOPPING CENTRE,238859
17 JALAN TENTERAM ,1.32821169071169,103.859812573047,NIL,17 JALAN TENTERAM SINGAPORE 321017,321017
14 TECH PARK CRESCENT ,1.3106942813709,103.630190012756,TUAS TECHPARK,TUAS TECHPARK,638118
122 ANG MO KIO AVENUE 3 ,1.37018860668947,103.843413231524,NIL,122 ANG MO KIO AVENUE 3 SINGAPORE 560122,560122
110 LENGKONG TIGA ,1.32387836492081,103.910715006466,DBS NTUC LENGKONG TIGA,DBS NTUC LENGKONG TIGA,410110
30 SEMBAWANG DRIVE ,1.44819535371132,103.819502127155,SUN PLAZA,SUN PLAZA,757713
80 SYED ALWI ROAD ,1.308907388657,103.856134843824,NIL,80 SYED ALWI ROAD SINGAPORE 207659,207659
11 RIVERVALE CRESCENT ,1.39221732695142,103.904473070943,UOB RIVERVALE MALL,UOB RIVERVALE MALL,545082
683 HOUGANG AVENUE 8 ,1.37331270061833,103.886367847223,NIL,683 HOUGANG AVENUE 8 SINGAPORE 530683,530683
215C COMPASSVALE DRIVE ,1.38977026274295,103.892787161183,COMPASSVALE MAST,COMPASSVALE MAST,543215
17 JASMINE ROAD,1.35511675331775,103.830147972899,ADELPHI PARK ESTATE,ADELPHI PARK ESTATE,576585
252 NORTH BRIDGE ROAD ,1.29389357863312,103.853119904656,RAFFLES CITY SHOPPING CENTRE,RAFFLES CITY SHOPPING CENTRE,179103
455 SENGKANG WEST AVENUE ,1.39183688254074,103.871190376558,FERNVALE WOODS,FERNVALE WOODS,790455
511 CANBERRA ROAD ,1.45384518789713,103.819543348113,ZULFA KINDERGARTEN @ SEMBAWANG MART PTE LTD,ZULFA KINDERGARTEN @ SEMBAWANG MART PTE LTD,750511
500 LORONG 6 TOA PAYOH,1.33289257447374,103.847128310333,DBS NTUC TOA PAYOH CENTRAL,DBS NTUC TOA PAYOH CENTRAL,310500
69 BEDOK SOUTH AVENUE 3 ,1.31935026360524,103.943632360195,SIGLAP LUCKY VALLEY,SIGLAP LUCKY VALLEY,460069
230 VICTORIA STREET ,1.29988818208147,103.85602341047,DBS BUGIS JUNCTION,DBS BUGIS JUNCTION,188024
11 UPPER BOON KENG ROAD ,1.31423937033551,103.870914031459,BOON KENG VILLE,BOON KENG VILLE,380011
418 YISHUN AVENUE 11 ,1.4248993192219,103.847249789758,NIL,418 YISHUN AVENUE 11 SINGAPORE 760418,760418
338 ANCHORVALE CRESCENT ,1.39922772538912,103.88965593061,ANCHORVALE PARKVIEW,ANCHORVALE PARKVIEW,540338
2D JALAN PAPAN ,1.32124572258872,103.729969760603,DBS AVERY LODGE,DBS AVERY LODGE,619415
18A KRANJI WAY ,1.43830097418883,103.745481915822,KRANJI WAY DORMITORY,KRANJI WAY DORMITORY,739443
50 HAVELOCK ROAD ,1.2897647546758,103.826802915076,DBS NTUC HAVELOCK ROAD,DBS NTUC HAVELOCK ROAD,160050
5 EUNOS CRESCENT ,1.32119096792976,103.903554516253,NIL,5 EUNOS CRESCENT SINGAPORE 400005,400005
261 PUNGGOL WAY ,1.40592709928122,103.897013157327,DBS PUNGGOL WAY/261,DBS PUNGGOL WAY/261,821261
51 NORTH COAST AVENUE ,1.45605972919051,103.786436914993,NORTH COAST LODGE,NORTH COAST LODGE,756992
192 LORONG 4 TOA PAYOH ,1.33161683347176,103.850623695196,DBS NTUC TOA PAYOH LORONG 6,DBS NTUC TOA PAYOH LORONG 6,310192
265 OUTRAM ROAD,1.2852701202985,103.834567181699,NIL,265 OUTRAM ROAD SINGAPORE 169059,169059
34 GREENWOOD AVENUE,1.33183246511303,103.806492461663,HILLCREST PARK,HILLCREST PARK,289236
78 TANAH MERAH COAST ROAD ,1.31229691028434,103.997648917613,CHANGI LODGE 2,CHANGI LODGE 2,498735
10 PAYA LEBAR ROAD ,1.31752384637596,103.892724428994,SHAW THEATRES PAYA LEBAR QUARTER,SHAW THEATRES PAYA LEBAR QUARTER,409057
301 GEYLANG ROAD,1.31272117351252,103.878642017231,BCH@301,BCH@301,389344
498 JURONG WEST STREET 41,1.34833335733135,103.724307317877,DBS NTUC JURONG WEST STREET 41,DBS NTUC JURONG WEST STREET 41,640498
8 TECH PARK CRESCENT ,1.31097333406367,103.629405094456,TUAS TECHPARK,TUAS TECHPARK,638124
384 UPPER BUKIT TIMAH ROAD,1.3578110348449,103.768080632959,THE RAIL MALL,THE RAIL MALL,678042
312A SUMANG LINK ,1.41081926900094,103.900371677782,PUNGGOL PARCVISTA,PUNGGOL PARCVISTA,821312
693 EAST COAST ROAD,1.31190105580921,103.921875613238,FRANKEL ESTATE,FRANKEL ESTATE,459058
32 MANDAI ESTATE ,1.40754124403461,103.758128230666,WESTLITE MANDAI DORMITORY,WESTLITE MANDAI DORMITORY,729939
63 JURONG WEST CENTRAL 3,1.33931504032005,103.705350996191,BOON LAY BUS INTERCHANGE,BOON LAY BUS INTERCHANGE,648331
849 YISHUN RING ROAD ,1.41695924255318,103.83535191292,DBS NTUC YISHUN STREET 81,DBS NTUC YISHUN STREET 81,760849
114 ALJUNIED AVENUE 2 ,1.32172296225797,103.886811795181,NIL,114 ALJUNIED AVENUE 2 SINGAPORE 380114,380114
309 HOUGANG AVENUE 5 ,1.36620554681345,103.895152424666,NIL,309 HOUGANG AVENUE 5 SINGAPORE 530309,530309
387 UPPER ALJUNIED ROAD,1.33312324236673,103.878841894011,NIL,387 UPPER ALJUNIED ROAD SINGAPORE 367872,367872
1 JOO KOON CIRCLE ,1.32460664929081,103.678096359775,DBS NTUC BENOI WAREHOUSE CLUB,DBS NTUC BENOI WAREHOUSE CLUB,629117
30 BENDEMEER ROAD ,1.31909343822193,103.863905325578,DBS NTUC BENDEMEER ROAD/30,DBS NTUC BENDEMEER ROAD/30,330030
693 WOODLANDS AVENUE 6 ,1.43808788056635,103.803764959272,ADMIRALTY GROVE,ADMIRALTY GROVE,730693
138 TAMPINES STREET 11 ,1.3455045062724,103.945588355383,NIL,138 TAMPINES STREET 11 SINGAPORE 521138,521138
161 ANG MO KIO AVENUE 4 ,1.37423951664303,103.839489194974,CM CENTRAL PTE LTD,CM CENTRAL PTE LTD,560161
6 SCOTTS ROAD,1.30580609670053,103.833059609864,OCBC SCOTTS SQUARE,OCBC SCOTTS SQUARE,228209
420A CLEMENTI AVENUE 1 ,1.30973331229192,103.76863729776,DBS CLEMENTI AVENUE 1/420A,DBS CLEMENTI AVENUE 1/420A,121420
269 JOO CHIAT ROAD,1.31034574970684,103.901856226132,NIL,269 JOO CHIAT ROAD SINGAPORE 427523,427523
118 RIVERVALE DRIVE ,1.38550420775531,103.901988424927,DBS NTUC RIVERVALE PLAZA,DBS NTUC RIVERVALE PLAZA,540118
525 ANG MO KIO AVENUE 10 ,1.37264569640251,103.853890703815,INTEMEDICAL 24 HR CLINIC,INTEMEDICAL 24 HR CLINIC,560525
253 SERANGOON CENTRAL DRIVE ,1.35367103018385,103.870756821688,DBS NTUC SERANGOON CENTRAL,DBS NTUC SERANGOON CENTRAL,550253
734 PASIR RIS STREET 72 ,1.37976754317116,103.936207567321,PASIR RIS WEST PLAZA,PASIR RIS WEST PLAZA,510734
57 NEW UPPER CHANGI ROAD ,1.32425201243512,103.941571885143,UOB NEW UPPER CHANGI ROAD,UOB NEW UPPER CHANGI ROAD,461057
391A ORCHARD ROAD ,1.30242417189411,103.834676124723,NGEE ANN CITY,NGEE ANN CITY,238873
574 ANG MO KIO AVENUE 10 ,1.37089456931834,103.856396509138,NIL,574 ANG MO KIO AVENUE 10 SINGAPORE 560574,560574
817 KEAT HONG LINK ,1.37754385007462,103.749700036701,KEAT HONG MIRAGE,KEAT HONG MIRAGE,680817
555 UPPER JURONG ROAD ,1.32882041921836,103.677161735755,DBS JURONG APARTMENTS,DBS JURONG APARTMENTS,638368
712 ANG MO KIO AVENUE 6 ,1.37130507773214,103.847129346639,DBS NTUC ANG MO KIO AVENUE 6,DBS NTUC ANG MO KIO AVENUE 6,560712
628 SENJA ROAD ,1.38512867383046,103.760410617887,SENJA CENTRE,SENJA CENTRE,670628
100 TRAS STREET ,1.2749347475094,103.843552412915,AMARA SINGAPORE,AMARA SINGAPORE,079027
17 LORONG KILAT ,1.34082770311651,103.774215677961,KILAT COURT,KILAT COURT,598139
451 JOO CHIAT ROAD ,1.3068658993424,103.904564981167,MAPLEBEAR KIDS' KINGDOM PTE. LTD.,MAPLEBEAR KIDS' KINGDOM PTE. LTD.,427664
120 POTONG PASIR AVENUE 1 ,1.33545353246777,103.863387980398,NIL,120 POTONG PASIR AVENUE 1 SINGAPORE 350120,350120
21 KAKI BUKIT AVENUE 3,1.33784319448553,103.90875594109,HOMESTAY LODGE,HOMESTAY LODGE,415921
658 PUNGGOL EAST ,1.39991156763461,103.919353979151,WATERWAY SUNRAY,WATERWAY SUNRAY,820658
509 BEDOK NORTH STREET 3 ,1.33317541897572,103.93126502489,DBS BEDOK NORTH STREET 3,DBS BEDOK NORTH STREET 3,460509
883 WOODLANDS STREET 82 ,1.44283592110679,103.790770766025,DBS WOODLANDS NORTH PLAZA,DBS WOODLANDS NORTH PLAZA,730883
539A BEDOK NORTH STREET 3 ,1.33240506627893,103.925501255318,OCBC BEDOK NORTH,OCBC BEDOK NORTH,461539
263 COMPASSVALE STREET ,1.39484816501403,103.896042267841,DBS COMPASSVALE STREET/263,DBS COMPASSVALE STREET/263,540263
54 BAYSHORE ROAD ,1.31179544227276,103.936894506125,BAYSHORE PARK,BAYSHORE PARK,469979
23 SERANGOON CENTRAL ,1.35031308387652,103.872929470122,SERANGOON PUBLIC LIBRARY,SERANGOON PUBLIC LIBRARY,556083
15 JALAN TEPONG ,1.30873854530926,103.722355914825,JURONG FOOD HUB,JURONG FOOD HUB,619336
2 BUKIT BATOK WEST AVENUE 7 ,1.36577391240463,103.748520902563,DBS NTUC HOMETEAM BUKIT BATOK,DBS NTUC HOMETEAM BUKIT BATOK,659003
642 HOUGANG AVENUE 8 ,1.37170343504638,103.879938978668,PCF SPARKLETOTS PRESCHOOL@ANG MO KIO-HOUGANG 642 (CC),PCF SPARKLETOTS PRESCHOOL@ANG MO KIO-HOUGANG 642 (CC),530642
18 SUNGEI KADUT STREET 2 ,1.41260803090908,103.747937640796,SUNGEI KADUT INDUSTRIAL ESTATE,SUNGEI KADUT INDUSTRIAL ESTATE,729236
249 JURONG EAST STREET 24 ,1.34256242291848,103.739259690369,NIL,249 JURONG EAST STREET 24 SINGAPORE 600249,600249
355 SEMBAWANG WAY ,1.43284602064285,103.784550610477,DBS SEMBAWANG WAY/355,DBS SEMBAWANG WAY/355,730355
166 BUKIT BATOK WEST AVENUE 8,1.34716236191294,103.742807879476,OCBC BUKIT BATOK WEST AVE 8 - FAIRPRICE,OCBC BUKIT BATOK WEST AVE 8 - FAIRPRICE,650166
542B SERANGOON NORTH AVENUE 3 ,1.37368392866904,103.871416983254,MRC KINDERGARTEN (SERANGOON NORTH),MRC KINDERGARTEN (SERANGOON NORTH),552542
37 TEBAN GARDENS ROAD,1.32052026841644,103.742651512921,DBS NTUC TEBAN GARDENS ROAD,DBS NTUC TEBAN GARDENS ROAD,600037
163 TANGLIN ROAD ,1.30484344196915,103.823852794772,TANGLIN MALL,TANGLIN MALL,247933
4 HILLVIEW RISE ,1.36267450828024,103.76417292006,HILLV2,HILLV2,667979
1 JALAN PAPAN ,1.32110826353586,103.72732504563,DBS TUAS RECREATION CLUB,DBS TUAS RECREATION CLUB,619392
69 TUAS SOUTH AVENUE 1 ,1.31335079454993,103.627473853217,SEATOWN INDUSTRIAL CENTRE,SEATOWN INDUSTRIAL CENTRE,637589
5 ALJUNIED ROAD,1.31357604994103,103.881877795334,NIL,5 ALJUNIED ROAD SINGAPORE 389797,389797
383 BUKIT TIMAH ROAD ,1.31943645952176,103.827347301883,ALOCASSIA APARTMENTS,ALOCASSIA APARTMENTS,259727
21 CHOA CHU KANG AVENUE 4 ,1.38506836476439,103.744950378814,DBS NTUC LOT 1 SHOPPERS' MALL,DBS NTUC LOT 1 SHOPPERS' MALL,689812
32 LORONG 11 GEYLANG,1.31346903148114,103.877004748853,NIL,32 LORONG 11 GEYLANG SINGAPORE 388724,388724
361 SEMBAWANG CRESCENT ,1.44631506781839,103.813936813705,SUN NATURA,SUN NATURA,750361
9 TRACTOR ROAD,1.32491979561756,103.705099699201,NIL,9 TRACTOR ROAD SINGAPORE 627970,627970
1B FIGARO STREET,1.31577965015377,103.925935676204,OPERA ESTATE,OPERA ESTATE,458322
2 ORCHARD TURN ,1.30419142102398,103.831510144742,CITIBANK ION ORCHARD,CITIBANK ION ORCHARD,238801
101 THOMSON ROAD ,1.31719450988559,103.843611443038,UNITED SQUARE,UNITED SQUARE,307591
118 HOLLAND AVENUE ,1.31056351530083,103.796107173318,RAFFLES HOLLAND V,RAFFLES HOLLAND V,278997
205 HOUGANG STREET 21 ,1.35954177325561,103.885167372726,CITIBANK HEARTLAND MALL,CITIBANK HEARTLAND MALL,530205
492 JURONG WEST STREET 41,1.35008503080761,103.724757267597,CENTRAL 24-HR CLNIC (JURONG WEST),CENTRAL 24-HR CLNIC (JURONG WEST),640492
1 MAJU AVENUE ,1.3652806057289,103.865101220515,DBS NTUC SERANGOON GARDEN VILLAGE,DBS NTUC SERANGOON GARDEN VILLAGE,556679
152B SERANGOON NORTH AVENUE 1 ,1.36979940374161,103.87303579046,NIL,152B SERANGOON NORTH AVENUE 1 SINGAPORE 552152,552152
34 JALAN BUKIT HO SWEE ,1.28807687600985,103.82708127923,THE BEO CRESCENT,THE BEO CRESCENT,160034
1 PARK ROAD ,1.31247326486217,103.853929522508,CONNEXION,CONNEXION,217562
4 TAMPINES CENTRAL 5 ,1.35267232210231,103.944387981063,UOB TAMPINES MALL AUTOLOBBY,UOB TAMPINES MALL AUTOLOBBY,529510
763 JURONG WEST STREET 75 ,1.34874387926183,103.698298710842,GEK POH SHOPPING CENTRE,GEK POH SHOPPING CENTRE,640763
745 BEDOK RESERVOIR ROAD ,1.33740471892368,103.921774736408,RESERVOIR VILLAGE,RESERVOIR VILLAGE,470745
570B WOODLANDS AVENUE 1 ,1.43106395458307,103.790454078756,DBS NTUC WOODLANDS AVENUE 1,DBS NTUC WOODLANDS AVENUE 1,732570
888 WOODLANDS DRIVE 50 ,1.43711856085535,103.795316064775,DBS NTUC 888 PLAZA,DBS NTUC 888 PLAZA,730888
20 EASTWOOD ROAD ,1.32154249881548,103.955535617961,EASTWOOD CENTRE,EASTWOOD CENTRE,486442
512 BISHAN STREET 13 ,1.3496223524908,103.849881699197,HDB BISHAN BRANCH,HDB BISHAN BRANCH,570512
150 SILAT AVENUE ,1.27707706879078,103.831425856916,OCBC SILAT AVE - FAIRPRICE,OCBC SILAT AVE - FAIRPRICE,160150
230 GEYLANG ROAD,1.31208817725995,103.877388748956,NIL,230 GEYLANG ROAD SINGAPORE 389290,389290
154A BUKIT BATOK WEST AVENUE 8 ,1.34738825473828,103.743704684376,OCBC BUKIT BATOK WEST AVE 8,OCBC BUKIT BATOK WEST AVE 8,651154
10 SINARAN DRIVE ,1.32070510956845,103.844160709661,SQUARE 2,SQUARE 2,307506
823 TAMPINES STREET 81 ,1.3487449454775,103.934024716838,NIL,823 TAMPINES STREET 81 SINGAPORE 520823,520823
1 JURONG WEST CENTRAL 2 ,1.33945200436319,103.706685012654,UOB JURONG POINT BRANCH,UOB JURONG POINT BRANCH,648886
20 LENGKOK BAHRU ,1.28736604092556,103.81481812521,BLK A,BLK A,159053
56 MARINE TERRACE ,1.30560569433107,103.91537607851,MARINE TERRACE HAVEN,MARINE TERRACE HAVEN,440056
95 LORONG 4 TOA PAYOH ,1.338974038346,103.849002148998,DBS TRADE_BRANCH,DBS TRADE_BRANCH,310095
1 HARBOURFRONT WALK ,1.26427434061441,103.822596222416,MORIAH ASSEMBLY OF GOD,MORIAH ASSEMBLY OF GOD,098585
11 TANJONG KATONG ROAD ,1.31461849889242,103.894738004496,DBS ONE KM,DBS ONE KM,437157
26A CHAI CHEE ROAD ,1.32370047880354,103.923497151617,NIL,26A CHAI CHEE ROAD SINGAPORE 461026,461026
138 ROBINSON ROAD ,1.27870608494088,103.848418970551,OXLEY TOWER,OXLEY TOWER,068906
445 FAJAR ROAD ,1.38339951629579,103.771086145173,CARPE DIEM YOUNG JOY PTE. LTD.,CARPE DIEM YOUNG JOY PTE. LTD.,670445
221 BOON LAY PLACE ,1.34639604683977,103.712387709421,RAINBOW CHILDCARE PTE LTD,RAINBOW CHILDCARE PTE LTD,640221
487B TAMPINES STREET 45 ,1.36026524882674,103.958372350188,NIL,487B TAMPINES STREET 45 SINGAPORE 521487,521487
18 TOH GUAN ROAD EAST ,1.33581675199731,103.751416959817,DBS CENTURION DORMITORY,DBS CENTURION DORMITORY,608591
27 PENJURU WALK ,1.31865728379443,103.733152140767,DBS PENJURU RECREATION CLUB,DBS PENJURU RECREATION CLUB,608538
5 STRAITS VIEW ,1.27737235072298,103.852844801266,THE HEART,THE HEART,018935
260 KIM KEAT AVENUE ,1.33211277447272,103.857378073376,MULTI STOREY CAR PARK,MULTI STOREY CAR PARK,310260
154 WEST COAST ROAD,1.30358622534992,103.76610375397,DBS WEST COAST PLAZA,DBS WEST COAST PLAZA,127371
691 WOODLANDS DRIVE 73 ,1.44062992421831,103.806198056529,ADMIRALTY FLORA,ADMIRALTY FLORA,730691
1 SELETAR ROAD ,1.38372479732787,103.864972142068,SELETAR HILLS ESTATE,SELETAR HILLS ESTATE,807535
13 YUK TONG AVENUE,1.34207496392367,103.774632794309,CHUN TIN COURT,CHUN TIN COURT,596318
900 SOUTH WOODLANDS DRIVE ,1.43501099715673,103.786918892248,STANDARD CHARTERED BANK WOODLANDS,STANDARD CHARTERED BANK WOODLANDS,730900
1 LOWER KENT RIDGE ROAD ,1.29277432702258,103.784084020155,LEARNING VISION @ WORK PTE. LTD.,LEARNING VISION @ WORK PTE. LTD.,119082
106 HOUGANG AVENUE 1 ,1.35370313485788,103.890680820842,UOB HOUGANG AVENUE 1,UOB HOUGANG AVENUE 1,530106
108 MCNAIR ROAD ,1.3216190383169,103.859382719506,MCNAIR SPRING,MCNAIR SPRING,321108
31 OCEAN WAY ,1.24706997908317,103.842182970325,DBS QUAYSIDE ISLE,DBS QUAYSIDE ISLE,098375
200 WOODLANDS INDUSTRIAL PARK E7 ,1.45074973335289,103.796846514064,WOODLANDS RECREATION CENTRE,WOODLANDS RECREATION CENTRE,757177
20 AH HOOD ROAD ,1.32702991607724,103.846490871841,RAMADA SINGAPORE AT ZHONGSHAN PARK,RAMADA SINGAPORE AT ZHONGSHAN PARK,329984
78A TELOK BLANGAH STREET 32 ,1.27338751489362,103.808980553946,MULTI STOREY CAR PARK,MULTI STOREY CAR PARK,101078
109 BUKIT PURMEI ROAD ,1.27392939929265,103.825310761145,BUKIT PURMEI VILLE,BUKIT PURMEI VILLE,090109
170 STIRLING ROAD ,1.29090918077067,103.803107626115,STIRLING VIEW,STIRLING VIEW,140170
12 TUAS SOUTH STREET 13 ,1.27019585421212,103.634479625194,DBS TUAS SOUTH RECREATION CLUB,DBS TUAS SOUTH RECREATION CLUB,636937
279 BISHAN STREET 24 ,1.35722283118337,103.843785252615,NIL,279 BISHAN STREET 24 SINGAPORE 570279,570279
2 ANG MO KIO DRIVE ,1.37789204897273,103.856411982029,DBS ITE COLLEGE CENTRAL BRANCH,DBS ITE COLLEGE CENTRAL BRANCH,567720
803 KING GEORGE'S AVENUE ,1.30811749102335,103.861188606169,NIL,803 KING GEORGE'S AVENUE SINGAPORE 200803,200803
218 SUMANG WALK ,1.40322712524584,103.89538702242,MATILDA PORTICO,MATILDA PORTICO,820218
610 TAMPINES NORTH DRIVE 1 ,1.36463646143194,103.937173937407,TAMPINES GREENWEAVE,TAMPINES GREENWEAVE,520610
473 FERNVALE STREET ,1.39779874741053,103.881698806174,FERNVALE RIVERGROVE,FERNVALE RIVERGROVE,790473
2 JOO CHIAT ROAD ,1.31567196429635,103.899183182411,DBS NTUC JOO CHIAT COMPLEX,DBS NTUC JOO CHIAT COMPLEX,420002
257 KRANJI ROAD,1.43594536031501,103.754008428765,KRANJI INDUSTRIAL ESTATE,KRANJI INDUSTRIAL ESTATE,739503
354 CLEMENTI AVENUE 2 ,1.3135304106234,103.770859843658,MUSTARD SEED CENTRE,MUSTARD SEED CENTRE,120354
896 DUNEARN ROAD ,1.33664023193956,103.783743083728,CONSULATE-GENERAL OF GREECE,CONSULATE-GENERAL OF GREECE,589472
26 JALAN MEMBINA ,1.28263437649669,103.825595753657,MULTI STOREY CAR PARK,MULTI STOREY CAR PARK,161026
2 WOODLANDS SECTOR 2 ,1.46150164054498,103.809471515497,WESTLITE WOODLANDS,WESTLITE WOODLANDS,737723
273C PUNGGOL PLACE ,1.40230301367166,103.901262391698,PUNGGOL REGALIA,PUNGGOL REGALIA,823273
116 JALAN TENTERAM ,1.32769993704525,103.861236369481,TENTERAM PEAK,TENTERAM PEAK,320116
10 BUKIT BATOK CENTRAL ,1.34893228104121,103.749492243875,OCBC BUKIT BATOK MRT STATION - FAIRPRICE,OCBC BUKIT BATOK MRT STATION - FAIRPRICE,659958
129 TUAS VIEW SQUARE,1.30117599336633,103.628177329762,WESTLINK TECHPARK,WESTLINK TECHPARK,637741
2 TAMPINES CENTRAL 5 ,1.35236829566862,103.943812302253,CENTURY SQUARE,CENTURY SQUARE,529509
631 BEDOK RESERVOIR ROAD ,1.33295873271663,103.914941831215,UOB BEDOK RESERVOIR ROAD,UOB BEDOK RESERVOIR ROAD,470631
2 JURONG EAST STREET 21 ,1.3346666186285,103.74695659203,MAYBANK OFFSITE@IMM,MAYBANK OFFSITE@IMM,609601
200 TURF CLUB ROAD ,1.33879673523931,103.793256122847,MINDCHAMPS PRESCHOOL @ BUKIT TIMAH PTE. LIMITED,MINDCHAMPS PRESCHOOL @ BUKIT TIMAH PTE. LIMITED,287994
6 HOUGANG AVENUE 3 ,1.36271446291047,103.893980503167,NIL,6 HOUGANG AVENUE 3 SINGAPORE 530006,530006
202 HOUGANG STREET 21 ,1.35752772836952,103.884028949439,DBS NTUC HOUGANG STREET 21,DBS NTUC HOUGANG STREET 21,530202
3 TUAS SOUTH STREET 12 ,1.27164225840049,103.63351227878,TUAS SOUTH DORMITORY,TUAS SOUTH DORMITORY,636947
239 YISHUN RING ROAD ,1.43359453113734,103.839686662816,DBS NTUC YISHUN RING ROAD,DBS NTUC YISHUN RING ROAD,760239
106 BIDADARI PARK DRIVE ,1.33369947750043,103.870796085779,ALKAFF VISTA,ALKAFF VISTA,340106
184 EAST COAST ROAD ,1.30676742950645,103.906559306672,NIL,184 EAST COAST ROAD SINGAPORE 428890,428890
510 BISHAN STREET 13 ,1.34888843900171,103.849691986357,STAR LEARNERS MONTESSORI PTE. LTD.,STAR LEARNERS MONTESSORI PTE. LTD.,570510
51 UPPER SERANGOON ROAD ,1.33135550782584,103.868150095119,OCBC THE POIZ CENTRE - FAIRPRICE,OCBC THE POIZ CENTRE - FAIRPRICE,347697
547 SEGAR ROAD ,1.3882402168269,103.76957538706,SEGAR VALE,SEGAR VALE,670547
510 BEDOK NORTH STREET 3 ,1.33233655577229,103.930496816187,UOB BEDOK NORTH STREET 3,UOB BEDOK NORTH STREET 3,460510
5 STADIUM WALK ,1.30192883841134,103.876208170362,UOB KALLANG LEISURE PARK,UOB KALLANG LEISURE PARK,397693
327 YISHUN RING ROAD ,1.43007109914643,103.842396446526,YISHUN RIVERGREEN,YISHUN RIVERGREEN,760327
249 JALAN KAYU,1.39657691054767,103.872860366695,JALAN KAYU ESTATE,JALAN KAYU ESTATE,799473
443C FAJAR ROAD ,1.38057053056182,103.76973269177,FAJAR HILLS,FAJAR HILLS,673443
12 KRANJI ROAD,1.43201730301544,103.759866941613,KRANJI LODGE ONE,KRANJI LODGE ONE,739522
202 MARSILING DRIVE ,1.44315121142693,103.775164777049,MARSILING ADMIRALTY PARK,MARSILING ADMIRALTY PARK,730202
135 JURONG EAST STREET 13 ,1.33382294191646,103.739755036969,DBS NTUC JURONG EAST STREET 13,DBS NTUC JURONG EAST STREET 13,600135
18 BEDOK SOUTH ROAD ,1.32043932800483,103.934781862165,DBS BEDOK SOUTH ROAD,DBS BEDOK SOUTH ROAD,460018
376 BUKIT BATOK STREET 31 ,1.35831705249927,103.749579868748,NIL,376 BUKIT BATOK STREET 31 SINGAPORE 650376,650376
476 UPPER SERANGOON VIEW ,1.37743006696183,103.903712864065,HOUGANG CAPEVIEW,HOUGANG CAPEVIEW,530476
80 MARINE PARADE ROAD ,1.30106068019409,103.905339493587,DBS DBS TREASURES AT PARKWAY PARADE,DBS DBS TREASURES AT PARKWAY PARADE,449269
29 CHAI CHEE AVENUE ,1.32476040143251,103.924370232312,ANSAR GARDEN,ANSAR GARDEN,460029
1 ORCHID CLUB ROAD ,1.41145912864712,103.845130941112,OCBC ORCHID COUNTRY CLUB - FAIRPRICE,OCBC ORCHID COUNTRY CLUB - FAIRPRICE,769162
301 PUNGGOL CENTRAL ,1.40371939757402,103.906138006707,CORALINUS,CORALINUS,820301
51 SOON LEE ROAD ,1.33212291013902,103.699070261789,DBS MIGRANT WORKERS' CENTRE RECREATION CLUB,DBS MIGRANT WORKERS' CENTRE RECREATION CLUB,628088
52 CHIN SWEE ROAD ,1.28708278284998,103.841580109275,NIL,52 CHIN SWEE ROAD SINGAPORE 160052,160052
1 GEYLANG SERAI ,1.31649443408571,103.896941669743,GEYLANG SERAI COMMUNITY CLUB,GEYLANG SERAI COMMUNITY CLUB,408528
57 DAWSON ROAD ,1.29270339855062,103.810958956467,DAWSON PLACE,DAWSON PLACE,142057
3 TEMASEK BOULEVARD ,1.29432416524256,103.860371993025,UOB SUNTEC CITY BRANCH,UOB SUNTEC CITY BRANCH,038983
225 LAVENDER STREET,1.31474015468409,103.859504689114,NIL,225 LAVENDER STREET SINGAPORE 338776,338776
15 SIGLAP ROAD ,1.30706075671037,103.9237697621,MANDARIN GARDENS,MANDARIN GARDENS,448912
1 VISTA EXCHANGE GREEN ,1.30681500712523,103.788462732266,DBS THE STAR VISTA,DBS THE STAR VISTA,138617
107 NORTH BRIDGE ROAD ,1.29124400604241,103.849984790048,FUNAN,FUNAN,179105
780 WOODLANDS CRESCENT ,1.44834155029683,103.801057143543,WOODLANDS DEW,WOODLANDS DEW,730780
53 ANG MO KIO AVENUE 3 ,1.36923627630004,103.848722224473,DBS ANG MO KIO - BASEMENT 1,DBS ANG MO KIO - BASEMENT 1,569933
91 UPPER PAYA LEBAR ROAD,1.33748492906751,103.887004163685,NIL,91 UPPER PAYA LEBAR ROAD SINGAPORE 534821,534821
74 WHAMPOA DRIVE ,1.32471579654689,103.857752875203,WHAMPOA COURT,WHAMPOA COURT,320074
537 BEDOK NORTH STREET 3 ,1.33177300757048,103.924236461237,NIL,537 BEDOK NORTH STREET 3 SINGAPORE 460537,460537
9 RAFFLES BOULEVARD ,1.29296504146626,103.859343968909,CITIBANK MILLENIA WALK,CITIBANK MILLENIA WALK,039596
410A SIN MING AVENUE ,1.36321663626182,103.835456921925,NIL,410A SIN MING AVENUE SINGAPORE 571410,571410
475 TAMPINES STREET 44 ,1.36032332368955,103.953125965232,OCBC TAMPINES STREET 44 - FAIRPRICE,OCBC TAMPINES STREET 44 - FAIRPRICE,520475
30 30 PENJURU PLACE,1.31621113527515,103.732527239032,JURONG PENJURU DORMITORY 2,JURONG PENJURU DORMITORY 2,608557
316B ANG MO KIO STREET 31 ,1.36462540270464,103.847677034369,TECK GHEE VISTA,TECK GHEE VISTA,563316
733 HAVELOCK ROAD ,1.28933450823794,103.827590181043,NIL,733 HAVELOCK ROAD SINGAPORE 169651,169651
238 THOMSON ROAD ,1.32021100706836,103.843656761867,DBS NOVENA MRT STATION,DBS NOVENA MRT STATION,307683
1A TUAS AVENUE 2 ,1.32160943931496,103.649583557099,TUAS AVENUE 2 DORMITORY,TUAS AVENUE 2 DORMITORY,639467
78 AIRPORT BOULEVARD ,1.35993782064432,103.990002942162,YOTELAIR SINGAPORE CHANGI AIRPORT,YOTELAIR SINGAPORE CHANGI AIRPORT,819666
2 SELETAR NORTH LINK ,1.41764102542684,103.896348101989,CARNIVAL CINEMAS S11 PUNGGOL,CARNIVAL CINEMAS S11 PUNGGOL,797601
365 SEMBAWANG CRESCENT ,1.44436832551494,103.816263881257,SUN BREEZE,SUN BREEZE,750365
151 LORONG CHUAN ,1.35148585261178,103.861533171041,NTP+,NTP+,556741
348 BEDOK ROAD ,1.33143623119911,103.948260304303,UOB BEDOK ROAD,UOB BEDOK ROAD,469560
258 PASIR RIS STREET 21 ,1.36706634197242,103.964635610477,UOB LOYANG POINT,UOB LOYANG POINT,510258
61 TEBAN GARDENS ROAD ,1.3223749703177,103.738412755847,DBS TEBAN GARDENS,DBS TEBAN GARDENS,600061
1 COVE AVENUE,1.2471504050601,103.839555011268,NIL,1 COVE AVENUE SINGAPORE 098537,098537
40 TUAS VIEW SQUARE ,1.30047659570156,103.628812327397,LANDBASE INDUSTRIAL BUILDING,LANDBASE INDUSTRIAL BUILDING,637779
1 UPPER ALJUNIED LANE ,1.33429242412799,103.878746207181,NIL,1 UPPER ALJUNIED LANE SINGAPORE 360001,360001
3 LORONG LIPUT ,1.31067976097165,103.795260908624,HOLLAND PIAZZA,HOLLAND PIAZZA,277725
284 BUKIT BATOK EAST AVENUE 3 ,1.34669905221409,103.757276700998,NIL,284 BUKIT BATOK EAST AVENUE 3 SINGAPORE 650284,650284
7 WALLICH STREET ,1.27672492702287,103.845155395387,GUOCO TOWER,GUOCO TOWER,078884
345 JURONG EAST STREET 31 ,1.34551210586752,103.73121914575,DBS NTUC JURONG EAST STREET 31/345,DBS NTUC JURONG EAST STREET 31/345,600345
50 JURONG GATEWAY ROAD ,1.33329334473462,103.743278742341,JEM,JEM,608549
638 JURONG WEST STREET 61 ,1.34167331883255,103.697244542805,DBS PIONEER MALL,DBS PIONEER MALL,640638
1 MARITIME SQUARE ,1.26447844519217,103.820315193363,DBS SINGAPORE CRUISE CENTRE,DBS SINGAPORE CRUISE CENTRE,099253
14 TUAS AVENUE 1 ,1.32148166449156,103.660952805443,JTC SPACE @ TUAS,JTC SPACE @ TUAS,639499
77 CIRCUIT ROAD ,1.32863373096632,103.885372610601,DBS NTUC CIRCUIT ROAD,DBS NTUC CIRCUIT ROAD,370077
10 CLAYMORE HILL,1.30834380578061,103.83263001321,THE AMERICAN CLUB,THE AMERICAN CLUB,229573
89 BEDOK NORTH STREET 4 ,1.33233468349262,103.938051284737,NIL,89 BEDOK NORTH STREET 4 SINGAPORE 460089,460089
1 PASIR RIS CLOSE ,1.37912717878008,103.955444758145,COSTA SANDS RESORT (DOWNTOWN EAST),COSTA SANDS RESORT (DOWNTOWN EAST),519599
108 DEPOT ROAD ,1.28096680702384,103.810298189643,DBS NTUC DEPOT ROAD,DBS NTUC DEPOT ROAD,100108
17 PETIR ROAD ,1.37841165144214,103.76382945872,DBS NTUC HILLION MALL,DBS NTUC HILLION MALL,678278
8 SELETAR NORTH LINK ,1.41922753105954,103.89655042559,PPT LODGE 1A,PPT LODGE 1A,797455
639 PUNGGOL DRIVE ,1.39946117845803,103.916054498662,DBS PUNGGOL DRIVE,DBS PUNGGOL DRIVE,820639
625 ELIAS ROAD ,1.37860239771677,103.941978174681,ELIAS MALL,ELIAS MALL,510625
21 TAMPINES NORTH DRIVE 2,1.37210169874539,103.931999887543,GIANT,GIANT,528765
133 CANBERRA VIEW ,1.44349544527985,103.830345369213,CANBERRA PLAZA,CANBERRA PLAZA,750133
417 FERNVALE LINK ,1.39158622983505,103.879874611419,FERNVALE RIVERWALK,FERNVALE RIVERWALK,790417
85 DAWSON ROAD ,1.29531966312622,103.809758591447,SKYVILLE @ DAWSON,SKYVILLE @ DAWSON,141085
11 MANDAI ESTATE ,1.40860253518183,103.759758955688,ELDIX,ELDIX,729908
18 KIM TIAN ROAD,1.28481163867942,103.829306826998,KAI FOOK MANSION,KAI FOOK MANSION,169252
301 WOODLANDS STREET 31 ,1.4315052703273,103.773515659097,FUCHUN NEIGHBOURHOOD CENTRE,FUCHUN NEIGHBOURHOOD CENTRE,730301
5 JALAN PAPAN ,1.32207201524401,103.727545771811,DBS WESTLITE DORMITORY (JALAN PAPAN),DBS WESTLITE DORMITORY (JALAN PAPAN),619396
30 GREENWOOD AVENUE,1.33176092057825,103.806586709072,HILLCREST PARK,HILLCREST PARK,289230
166 BUKIT MERAH CENTRAL ,1.28305664324915,103.817663685706,UOB BUKIT MERAH CENTRAL,UOB BUKIT MERAH CENTRAL,150166
306 UBI AVENUE 1 ,1.32987219692115,103.901929745036,SPRING BRAINY KIDZ GROUP PTE. LTD.,SPRING BRAINY KIDZ GROUP PTE. LTD.,400306
681 PUNGGOL DRIVE ,1.40282352005409,103.91346139614,OCBC OASIS TERRACES - FAIRPRICE,OCBC OASIS TERRACES - FAIRPRICE,820681
352 CLEMENTI AVENUE 2 ,1.31427860227337,103.771350557894,CLEMENTI AVENUE 2 SHOPPING CENTRE,CLEMENTI AVENUE 2 SHOPPING CENTRE,120352
120 CANBERRA CRESCENT ,1.4456745290189,103.831508132401,DBS 120 CANBERRA CRESCENT,DBS 120 CANBERRA CRESCENT,750120
25 GHIM MOH LINK ,1.3081474688469,103.786255228477,GHIM MOH VALLEY,GHIM MOH VALLEY,270025
500 NEW PUNGGOL ROAD ,1.42088392750942,103.912199519838,THE PUNGGOL SETTLEMENT,THE PUNGGOL SETTLEMENT,828617
280 BUKIT BATOK EAST AVENUE 3 ,1.34762239826035,103.757150072517,DBS NTUC BUKIT BATOK EAST AVENUE 3,DBS NTUC BUKIT BATOK EAST AVENUE 3,650280
18 YISHUN AVENUE 9 ,1.43306021695327,103.841649364872,DBS JUNCTION NINE,DBS JUNCTION NINE,768897
30 EAST COAST ROAD ,1.30377937020921,103.90291224848,VILLAGE HOTEL KATONG,VILLAGE HOTEL KATONG,428751
351 ANCHORVALE ROAD ,1.39332786581517,103.886617625113,ANCHORVALE FIELDS,ANCHORVALE FIELDS,540351
51 YISHUN CENTRAL 1 ,1.42991718038493,103.836421473445,GOLDEN VILLAGE - YISHUN TEN,GOLDEN VILLAGE - YISHUN TEN,768794
255 EAST COAST ROAD,1.31462671983675,103.934759486569,SPRING PARK ESTATE,SPRING PARK ESTATE,466406
371 BUKIT BATOK STREET 31 ,1.35925940866068,103.75069463109,NIL,371 BUKIT BATOK STREET 31 SINGAPORE 650371,650371
16 JALAN KURAS,1.37307949430462,103.829630839555,SEMBAWANG HILLS ESTATE,SEMBAWANG HILLS ESTATE,577729
25A CHAI CHEE ROAD ,1.32329022760147,103.924151826832,UOB CHAI CHEE ROAD,UOB CHAI CHEE ROAD,461025
5 CHANGI BUSINESS PARK CENTRAL 1 ,1.33408363820793,103.962946043413,DBS CHANGI CITY POINT,DBS CHANGI CITY POINT,486038
83 PUNGGOL CENTRAL ,1.40648462132006,103.902105680785,WATERWAY POINT,WATERWAY POINT,828761
602A TAMPINES AVENUE 9 ,1.36113645824177,103.937425593435,TAMPINES GREENRIDGES,TAMPINES GREENRIDGES,521602
86 REDHILL CLOSE ,1.2869200622963,103.818673592235,NIL,86 REDHILL CLOSE SINGAPORE 150086,150086
68 ORCHARD ROAD ,1.30074770963916,103.845047573431,PLAZA SINGAPURA,PLAZA SINGAPURA,238839
440 PASIR RIS DRIVE 4 ,1.36900809318444,103.958696603631,NIL,440 PASIR RIS DRIVE 4 SINGAPORE 510440,510440
27 ENG KONG TERRACE,1.3361924255042,103.768352501927,ENG KONG PARK,ENG KONG PARK,598999
301 UPPER THOMSON ROAD ,1.35479436177561,103.830924910072,DBS THOMSON BRANCH,DBS THOMSON BRANCH,574408
18 TECK WHYE LANE ,1.37829768797221,103.754071398872,TECK WHYE HEIGHTS III,TECK WHYE HEIGHTS III,680018
15 ENG KONG TERRACE,1.33638188559532,103.768386558311,ENG KONG PARK,ENG KONG PARK,598987
260 ANG MO KIO STREET 21 ,1.36891617080101,103.834499516963,KEBUN BARU COURT,KEBUN BARU COURT,560260
5 TECH PARK CRESCENT ,1.31146788847722,103.630340020449,TUAS TECHPARK,TUAS TECHPARK,638127
64 RANGOON ROAD,1.31391051715464,103.854392537736,R66 APARTMENTS,R66 APARTMENTS,218354
1 JALAN BUKIT MERAH ,1.28647148628638,103.808275089948,DBS NTUC JALAN BUKIT MERAH/1,DBS NTUC JALAN BUKIT MERAH/1,150001
21 TUAS VIEW SQUARE,1.29891712474996,103.627532390173,NIL,21 TUAS VIEW SQUARE SINGAPORE 637640,637640
1 WOODLANDS SQUARE ,1.4360700650803,103.785981524253,CAUSEWAY POINT,CAUSEWAY POINT,738099
101 CLEMENTI ROAD ,1.30176049506481,103.769371057337,KENT VALE,KENT VALE,129787
620 GEYLANG ROAD,1.31415001272084,103.888544866086,NIL,620 GEYLANG ROAD SINGAPORE 389559,389559
28 JALAN KELULUT,1.38358192475429,103.87551282274,SELETAR HILLS ESTATE,SELETAR HILLS ESTATE,809045
118 ALJUNIED AVENUE 2 ,1.32000040187831,103.887363064677,NIL,118 ALJUNIED AVENUE 2 SINGAPORE 380118,380118
447 CHANGI ROAD,1.31909317868113,103.912132946824,NIL,447 CHANGI ROAD SINGAPORE 419875,419875
71 WOODLANDS AVENUE 3 ,1.43262603485889,103.774051197031,CITIBANK MARSILING SMRT STATION,CITIBANK MARSILING SMRT STATION,739044
1 STADIUM PLACE ,1.30307515150401,103.873149707591,KALLANG WAVE MALL,KALLANG WAVE MALL,397628
373 BUKIT BATOK STREET 31 ,1.35892457118178,103.750397174291,NIL,373 BUKIT BATOK STREET 31 SINGAPORE 650373,650373
660A EDGEDALE PLAINS ,1.40262197348865,103.916519598298,WATERWAY SUNDEW,WATERWAY SUNDEW,821660
463 SEMBAWANG DRIVE ,1.45555388401849,103.81464932384,DBS SEMBAWANG DRIVE 463,DBS SEMBAWANG DRIVE 463,750463
598 YISHUN RING ROAD ,1.41798969122298,103.841317292608,OCBC WISTERIA MALL - FAIRPRICE,OCBC WISTERIA MALL - FAIRPRICE,768698
147 SYED ALWI ROAD,1.30975299910627,103.855701473372,NIL,147 SYED ALWI ROAD SINGAPORE 207706,207706
106 HENDERSON CRESCENT ,1.28942452424589,103.822305493842,MY FIRST SKOOL,MY FIRST SKOOL,150106
29 BINJAI PARK,1.33661378718238,103.786974822749,BINJAI PARK,BINJAI PARK,589831
498 GEYLANG ROAD,1.313289737192,103.885153835516,GREEN COURT,GREEN COURT,389456
111 SOMERSET ROAD ,1.30030012346783,103.837312465913,SWEDISH SUPPLEMENTARY EDUCATION SCHOOL,SWEDISH SUPPLEMENTARY EDUCATION SCHOOL,238164
266 COMPASSVALE BOW ,1.38187771301641,103.897039857818,NIL,266 COMPASSVALE BOW SINGAPORE 540266,540266
676 GEYLANG ROAD,1.31453523761957,103.89039022285,GEYLANG CONSERVATION AREA,GEYLANG CONSERVATION AREA,389603
28 FERNWOOD TERRACE ,1.31009285464885,103.924522385402,FERNWOOD TERRACE,FERNWOOD TERRACE,459233
43 CAMBRIDGE ROAD ,1.3153159513727,103.849454198086,DBS NTUC CAMBRIDGE ROAD,DBS NTUC CAMBRIDGE ROAD,210043
5 RIDGEWOOD CLOSE,1.3166189803866,103.77894725541,RIDGEWOOD CONDOMINIUM,RIDGEWOOD CONDOMINIUM,276696
209 NEW UPPER CHANGI ROAD ,1.32463573076034,103.931068829397,NIL,209 NEW UPPER CHANGI ROAD SINGAPORE 460209,460209
1 KIM SENG PROMENADE ,1.2934759620704,103.831975865363,DBS GREAT WORLD CITY BRANCH,DBS GREAT WORLD CITY BRANCH,237994
8 CHANGI BUSINESS PARK AVENUE 1,1.3349065126609,103.963879755769,DBS NTUC ESR BIZPARK @ CHANGI,DBS NTUC ESR BIZPARK @ CHANGI,486018
180 KITCHENER ROAD ,1.31139349427341,103.856487111691,MINDCHAMPS PRESCHOOL @ CITY SQUARE PTE. LTD,MINDCHAMPS PRESCHOOL @ CITY SQUARE PTE. LTD,208539
21B TAMPINES AVENUE,1.36644646508851,103.92606538369,NIL,21B TAMPINES AVENUE SINGAPORE 529804,529804
212 BEDOK NORTH STREET 1 ,1.32591841541763,103.931686958494,OCBC BEDOK NORTH ST 1 - FAIRPRICE,OCBC BEDOK NORTH ST 1 - FAIRPRICE,460212
12 ALEXANDRA VIEW ,1.29012765494819,103.816552347869,ARTRA,ARTRA,158736
183 JALAN PELIKAT ,1.35530904178242,103.887857183262,THE PROMENADE@PELIKAT,THE PROMENADE@PELIKAT,537643
4 BUKIT BATOK STREET 41 ,1.35594171176111,103.741127005764,LE QUEST,LE QUEST,657991
1 JELEBU ROAD ,1.37989494369864,103.764459887796,CITIBANK BUKIT PANJANG PLAZA,CITIBANK BUKIT PANJANG PLAZA,677743
41 JALAN TIGA ,1.3078273680821,103.884763845679,PINE GREEN,PINE GREEN,390041
451 CLEMENTI AVENUE 3 ,1.31248109025097,103.765476495005,CLEMENTI POLYCLINIC,CLEMENTI POLYCLINIC,120451
10 EUNOS ROAD 8 ,1.31898220434607,103.894722842965,DBS NTUC SINGAPORE POST CENTRE,DBS NTUC SINGAPORE POST CENTRE,408600
675 YISHUN AVENUE 4 ,1.42006293748965,103.843561434577,FERN GROVE @ YISHUN,FERN GROVE @ YISHUN,760675
291 JOO CHIAT ROAD ,1.3098709702541,103.902354993065,JK CENTRE,JK CENTRE,427543
622D PUNGGOL CENTRAL ,1.40053114998822,103.910536919134,PUNGGOL SPECTRA,PUNGGOL SPECTRA,824622
1 FIFTH AVENUE ,1.33077492770988,103.795713392342,DBS GUTHRIE HOUSE,DBS GUTHRIE HOUSE,268802
29A GHIM MOH LINK ,1.30849288050575,103.784598100953,GHIM MOH EDGE,GHIM MOH EDGE,271029
88 TANGLIN HALT ROAD ,1.30178506364186,103.798226442608,CARE CORNER FAMILY SERVICE CENTRE (QUEENSTOWN),CARE CORNER FAMILY SERVICE CENTRE (QUEENSTOWN),141088
279 BALESTIER ROAD ,1.32269359217429,103.852094030171,VICTORY LIFE CHRISTIAN SCHOOL,VICTORY LIFE CHRISTIAN SCHOOL,329727
604 SEMBAWANG ROAD ,1.44182470675733,103.824845207237,SEMBAWANG SHOPPING CENTRE,SEMBAWANG SHOPPING CENTRE,758459
277 ORCHARD ROAD ,1.30048912114759,103.839325098352,JEN SINGAPORE ORCHARDGATEWAY BY SHANGRI-LA,JEN SINGAPORE ORCHARDGATEWAY BY SHANGRI-LA,238858
3 SIMEI STREET 6 ,1.34269199750599,103.953050756306,DBS NTUC SIMEI,DBS NTUC SIMEI,528833
35 STUDENTS WALK,1.34842266576961,103.685434201207,NANYANG TECHNOLOGICAL UNIVERSITY (CANTEEN 2),NANYANG TECHNOLOGICAL UNIVERSITY (CANTEEN 2),639548
1 VISTA EXCHANGE GREEN,1.3068719300898,103.788474398043,THE STAR,THE STAR,138617
19 ENG KONG TERRACE,1.3364085024668,103.768270552015,ENG KONG PARK,ENG KONG PARK,598991
313 TANJONG KATONG ROAD,1.30608655778768,103.896150403005,NIL,313 TANJONG KATONG ROAD SINGAPORE 437096,437096
406A SEMBAWANG DRIVE ,1.45238757319957,103.817440100888,MULTI STOREY CAR PARK,MULTI STOREY CAR PARK,751406
100 SEMBAWANG DRIVE ,1.46092468732297,103.817179770561,NIL,100 SEMBAWANG DRIVE SINGAPORE 756998,756998
131 KILLINEY ROAD ,1.29731616717126,103.838541255824,CGH BUILDING,CGH BUILDING,239571
259 PASIR RIS STREET 21 ,1.36645364037722,103.964598499523,OCBC LOYANG POINT,OCBC LOYANG POINT,510259
3 GATEWAY DRIVE ,1.33415752008876,103.742766489597,UOB WESTGATE,UOB WESTGATE,608532
3155 COMMONWEALTH AVENUE WEST,1.31555354277949,103.764596439304,CITIBANK CLEMENTI MALL,CITIBANK CLEMENTI MALL,129588
442 JURONG WEST AVENUE 1 ,1.35151847519437,103.719496480131,NIL,442 JURONG WEST AVENUE 1 SINGAPORE 640442,640442
6 MARINE PARADE CENTRAL,1.30134714783304,103.907183612906,NIL,6 MARINE PARADE CENTRAL SINGAPORE 449411,449411
2 MARINA BOULEVARD ,1.28076943476846,103.852658562152,THE SAIL @ MARINA BAY,THE SAIL @ MARINA BAY,018987
23 MANDAI ESTATE ,1.40631205409106,103.760561705557,WESTLITE JUNIPER,WESTLITE JUNIPER,729937
810 CHOA CHU KANG AVENUE 7 ,1.3740546176425,103.746160942106,KEAT HONG COLOURS,KEAT HONG COLOURS,680810
107 TAMPINES STREET 11 ,1.34837105821583,103.948128928872,DBS NTUC TAMPINES STREET 11,DBS NTUC TAMPINES STREET 11,521107
36 HOLLAND DRIVE ,1.30918303313868,103.792640480326,UOB BUONA VISTA COMMUNITY CLUB,UOB BUONA VISTA COMMUNITY CLUB,270036
277C COMPASSVALE LINK ,1.38233698966981,103.893607838756,ASPELLA,ASPELLA,543277
475 CHOA CHU KANG AVENUE 3 ,1.37789727709418,103.739015486021,OCBC SUNSHINE PLACE,OCBC SUNSHINE PLACE,680475
70 TUAS SOUTH AVENUE 1 ,1.31409942872378,103.625894546863,TUAS VIEW DORMITORY,TUAS VIEW DORMITORY,637285
1 TAMPINES WALK,1.35218046898785,103.940598001519,DBS OUR TAMPINES HUB,DBS OUR TAMPINES HUB,528523
280 TAMPINES STREET 22 ,1.34753519689194,103.951702776881,NIL,280 TAMPINES STREET 22 SINGAPORE 520280,520280
39 LOWLAND ROAD,1.36140252859334,103.883163889476,NIL,39 LOWLAND ROAD SINGAPORE 547441,547441
58 MARINE TERRACE ,1.30611781253448,103.914026029355,MARINE TERRACE HAVEN,MARINE TERRACE HAVEN,440058
31A TANAH MERAH COAST ROAD ,1.32187768746827,103.987506651389,SSKBJV PACKAGE 1 WORKER DORMITORY,SSKBJV PACKAGE 1 WORKER DORMITORY,498720
599 GEYLANG ROAD ,1.31420608181449,103.88669948112,GEYLANG CONSERVATION AREA,GEYLANG CONSERVATION AREA,389538
50 NANYANG AVENUE ,1.34458794516981,103.682758049858,OCBC NANYANG TECHNOLOGICAL UNIVERSITY (NS3-01-10),OCBC NANYANG TECHNOLOGICAL UNIVERSITY (NS3-01-10),639798
934 EAST COAST ROAD,1.31230757275549,103.925234546756,NIL,934 EAST COAST ROAD SINGAPORE 459125,459125
682 HOUGANG AVENUE 4 ,1.37361587694624,103.885758919948,DBS NTUC HOUGANG AVENUE 4,DBS NTUC HOUGANG AVENUE 4,530682
500 OLD CHOA CHU KANG ROAD ,1.37761084648511,103.718403750945,SUNGEI TENGAH LODGE,SUNGEI TENGAH LODGE,698924
5 UPPER BOON KENG ROAD ,1.31265449628072,103.872541799007,KALLANG HEIGHTS,KALLANG HEIGHTS,380005
1 JALAN BERSEH ,1.30778509510261,103.857010982845,NIL,1 JALAN BERSEH SINGAPORE 209037,209037
1 JALAN ANAK BUKIT ,1.3386316527745,103.778585430975,UOB BUKIT TIMAH PLAZA,UOB BUKIT TIMAH PLAZA,588996
6 MANDAI LINK,1.40957582177889,103.756234868343,NIL,6 MANDAI LINK SINGAPORE 728652,728652
447A JALAN KAYU ,1.39213828470085,103.872490555974,DBS JALAN KAYU 447A,DBS JALAN KAYU 447A,791447
65 AIRPORT BOULEVARD ,1.35437074082484,103.985169645053,DBS CHANGI AIRPORT TERMINAL 3 BASEMENT 2,DBS CHANGI AIRPORT TERMINAL 3 BASEMENT 2,819663
756 UPPER SERANGOON ROAD ,1.35348082277147,103.878828134896,UPPER SERANGOON SHOPPING CENTRE,UPPER SERANGOON SHOPPING CENTRE,534626
308C PUNGGOL WALK ,1.40800694944027,103.899074357998,WATERWAY TERRACES I,WATERWAY TERRACES I,823308
502 WEST COAST DRIVE ,1.31193388099262,103.759080462665,OCBC WEST COAST DRIVE - FAIRPRICE,OCBC WEST COAST DRIVE - FAIRPRICE,120502
1 JALAN DUSUN ,1.32696539864482,103.84367423097,ONE DUSUN RESIDENCES,ONE DUSUN RESIDENCES,329363
70 WOODLANDS AVENUE 7 ,1.44056973074732,103.80104928343,DBS ADMIRALTY MRT STATION,DBS ADMIRALTY MRT STATION,738344
6 TUAS SOUTH STREET 15 ,1.27067711513742,103.636144793048,CDPL (TUAS) DORMITORY,CDPL (TUAS) DORMITORY,636906
148F PASIR PANJANG ROAD,1.27660174555781,103.79200943968,NIL,148F PASIR PANJANG ROAD SINGAPORE 118553,118553
461 YISHUN AVENUE 6 ,1.42841338853064,103.84997365333,BLOSSOM SPRING @ YISHUN,BLOSSOM SPRING @ YISHUN,760461
878C TAMPINES AVENUE 8 ,1.35126411286423,103.929363834798,TAMPINES GREENFOREST,TAMPINES GREENFOREST,523878
225 OUTRAM ROAD,1.2834507756763,103.835371238027,NIL,225 OUTRAM ROAD SINGAPORE 169038,169038
23 PENJURU WALK ,1.31800980644852,103.73194890136,CASSIA AT PENJURU,CASSIA AT PENJURU,608537
1 PASIR RIS CENTRAL STREET 3 ,1.37244981718271,103.949715695281,UOB WHITE SANDS MALL,UOB WHITE SANDS MALL,518457
371 BEACH ROAD ,1.30231590504573,103.862331661034,CITY GATE,CITY GATE,199597
430 UPPER CHANGI ROAD ,1.3317758150305,103.946201241591,EAST VILLAGE,EAST VILLAGE,487048
18B CIRCUIT ROAD ,1.32918105126141,103.888248441219,MACPHERSON RESIDENCY,MACPHERSON RESIDENCY,372018
105 CANBERRA STREET ,1.44885564679911,103.832409172149,EASTBROOK @ CANBERRA,EASTBROOK @ CANBERRA,750105
33 SENGKANG WEST AVENUE ,1.39130622992517,103.876085067727,SHAW THEATRES SELETAR,SHAW THEATRES SELETAR,797653
776 PASIR RIS STREET 71 ,1.37461117497015,103.937175821555,NIL,776 PASIR RIS STREET 71 SINGAPORE 510776,510776
440 BUKIT BATOK WEST AVENUE 8 ,1.35572308109486,103.739303105372,WEST RIDGES @ BUKIT BATOK,WEST RIDGES @ BUKIT BATOK,650440
720 CLEMENTI WEST STREET 2 ,1.30246408847832,103.763750972451,NIL,720 CLEMENTI WEST STREET 2 SINGAPORE 120720,120720
56 TANGLIN ROAD ,1.30561167112637,103.822962948283,WEE CARE KINDERGARTEN,WEE CARE KINDERGARTEN,247964
925 YISHUN CENTRAL 1 ,1.42750549654333,103.837125284539,NIL,925 YISHUN CENTRAL 1 SINGAPORE 760925,760925
16 ENGGOR STREET,1.27461794103822,103.844319553688,ALTEZ,ALTEZ,079717
231 SUMANG LANE ,1.40205998268188,103.892211658905,MATILDA COURT,MATILDA COURT,820231
253 CHOA CHU KANG AVENUE 1 ,1.37743963470097,103.744383225684,UOB CHOA CHU KANG AVENUE 1,UOB CHOA CHU KANG AVENUE 1,680253
442 ORCHARD ROAD ,1.30766860940267,103.828164396352,CLAYMORE CONNECT,CLAYMORE CONNECT,238879
21 CHOA CHU KANG NORTH 6 ,1.39696992267974,103.746443198224,YEWTEE POINT,YEWTEE POINT,689578
4 LORONG 7 TOA PAYOH ,1.33904479767405,103.855618338722,SKYLACE LEARNING HUB PTE LTD,SKYLACE LEARNING HUB PTE LTD,310004
23 KAKI BUKIT ROAD 3 ,1.33733862669183,103.903735075266,THE LEO,THE LEO,415812
10 TAMPINES CENTRAL 1 ,1.35420430432819,103.945051968029,HSBC TAMPINES BRANCH,HSBC TAMPINES BRANCH,529536
180 WOODLANDS INDUSTRIAL PARK E5 ,1.45200129785274,103.79268387285,WOODLANDS AUTO HUB,WOODLANDS AUTO HUB,757512
1 NORTHPOINT DRIVE ,1.42875460572994,103.836324536111,NEE SOON CENTRAL COMMUNITY CLUB,NEE SOON CENTRAL COMMUNITY CLUB,768019
200 UPPER THOMSON ROAD ,1.35184499157062,103.836053648292,THOMSON IMPERIAL COURT,THOMSON IMPERIAL COURT,574424
180 DEPOT ROAD ,1.28220135422008,103.803023756097,THE INTERLACE,THE INTERLACE,109684
451 BUKIT BATOK WEST AVENUE 6 ,1.35303717968525,103.743942567711,WEST TERRA @ BUKIT BATOK,WEST TERRA @ BUKIT BATOK,650451
11 TECH PARK CRESCENT ,1.31100240690691,103.631572303038,TUAS TECHPARK,TUAS TECHPARK,638121
80 LORONG LIMAU ,1.32368561098529,103.855791107736,DBS NTUC LORONG LIMAU,DBS NTUC LORONG LIMAU,320080
1 SENGKANG SQUARE ,1.3920543053799,103.895063884132,OCBC COMPASS ONE BRANCH,OCBC COMPASS ONE BRANCH,545078
17 KIAN TECK LANE ,1.33314578370484,103.695248109449,BLUE STARS DORMITORY,BLUE STARS DORMITORY,627851
446 FAJAR ROAD ,1.38400582466296,103.771029603101,FAJAR SHOPPING CENTRE,FAJAR SHOPPING CENTRE,670446
2 JURONG EAST CENTRAL 1 ,1.33335548871256,103.740182040775,J'DEN,J'DEN,609731
28 DOVER CRESCENT ,1.30446092675742,103.781779696748,DBS NTUC DOVER CRESCENT,DBS NTUC DOVER CRESCENT,130028
57 JALAN TUA KONG,1.31595937666575,103.925443851261,SOUTH UNION PARK,SOUTH UNION PARK,457253
768 WOODLANDS AVENUE 6 ,1.44571784134906,103.798166316676,CENTRAL 24-HR CLINIC (WOODLANDS),CENTRAL 24-HR CLINIC (WOODLANDS),730768
583 ORCHARD ROAD,1.30655430501572,103.828652459744,CITIBANK FORUM THE SHOPPING MALL,CITIBANK FORUM THE SHOPPING MALL,238884
115 BEDOK NORTH ROAD ,1.33143368792839,103.93686541135,PCF SPARKLETOTS PRESCHOOL @ FENGSHAN 115 (CC),PCF SPARKLETOTS PRESCHOOL @ FENGSHAN 115 (CC),460115
144 UPPER BUKIT TIMAH ROAD ,1.34239508820554,103.776468301093,KINDER GROWTH PTE LTD,KINDER GROWTH PTE LTD,588177
279 SENGKANG EAST AVENUE ,1.38621835549802,103.892995495476,DBS NTUC SENGKANG EAST AVENUE/279,DBS NTUC SENGKANG EAST AVENUE/279,540279
507 YISHUN AVENUE 4 ,1.41517413065244,103.839827784744,ANGSANA BREEZE @ YISHUN,ANGSANA BREEZE @ YISHUN,760507
311 NEW UPPER CHANGI ROAD ,1.32475054237912,103.92918919889,DBS BEDOK MALL 1,DBS BEDOK MALL 1,467360
962 JURONG WEST STREET 91 ,1.34201784072118,103.691483114884,NIL,962 JURONG WEST STREET 91 SINGAPORE 640962,640962
1 HOUGANG STREET 91 ,1.37560985710478,103.879407455354,UOB HOUGANG 1,UOB HOUGANG 1,538692
7 JURONG WEST AVENUE 5,1.34878489718303,103.703415655017,NIL,7 JURONG WEST AVENUE 5 SINGAPORE 649486,649486
503 JURONG WEST AVENUE 1 ,1.34995541462242,103.71770480961,HONG KAH POINT,HONG KAH POINT,640503
785E WOODLANDS RISE ,1.44679259535344,103.80548353376,WOODLANDS PASTURE II,WOODLANDS PASTURE II,735785
181 LORONG 4 TOA PAYOH ,1.33361936151806,103.850978678264,NIL,181 LORONG 4 TOA PAYOH SINGAPORE 310181,310181
991 BUANGKOK LINK ,1.38433426615655,103.881623070164,BUANGKOK SQUARE,BUANGKOK SQUARE,530991
1 BUKIT BATOK CENTRAL LINK ,1.34992152880216,103.749171990184,BUKIT BATOK CENTRAL POST OFFICE,BUKIT BATOK CENTRAL POST OFFICE,658713
872C TAMPINES STREET 86 ,1.35530533818727,103.931659088071,OCBC TAMPINES STREET 86 - FAIRPRICE,OCBC TAMPINES STREET 86 - FAIRPRICE,523872
215 ANG MO KIO AVENUE 1 ,1.36648772103091,103.841853392645,KITS4KIDS SPECIAL SCHOOL,KITS4KIDS SPECIAL SCHOOL,560215
505 TAMPINES CENTRAL 1 ,1.3555484823662,103.945616071023,TAMPINES HEART,TAMPINES HEART,520505
18 TAI SENG STREET ,1.33641921475965,103.888804925899,DBS NTUC MAPLETREE18,DBS NTUC MAPLETREE18,539775
464 UPPER BUKIT TIMAH ROAD,1.36012368217462,103.767542220363,THE RAIL MALL,THE RAIL MALL,678077
168 PUNGGOL FIELD ,1.39425629780831,103.913043510411,OCBC PUNGGOL PLAZA,OCBC PUNGGOL PLAZA,820168
236 JOO CHIAT ROAD,1.311723245498,103.900604772211,NIL,236 JOO CHIAT ROAD SINGAPORE 427493,427493
181 ORCHARD ROAD ,1.30083890839245,103.839434733899,ORCHARD CENTRAL,ORCHARD CENTRAL,238896
20 GREENWOOD AVENUE,1.33149129253859,103.806809027748,HILLCREST PARK,HILLCREST PARK,289215
61 CHOA CHU KANG DRIVE ,1.3976916943313,103.747506785575,UOB YEW TEE MRT STATION,UOB YEW TEE MRT STATION,689715
491 RIVER VALLEY ROAD ,1.29301785120185,103.826940805171,VALLEY POINT SHOPPING CENTRE,VALLEY POINT SHOPPING CENTRE,248371
201B TAMPINES STREET 21 ,1.35345315769813,103.953009918868,NIL,201B TAMPINES STREET 21 SINGAPORE 522201,522201
4 JALAN MAT JAMBOL ,1.27685386351985,103.791742171785,BIJOU,BIJOU,119555
280 WOODLANDS INDUSTRIAL PARK E5 ,1.45132505713202,103.79109517658,HARVEST @ WOODLANDS,HARVEST @ WOODLANDS,757322
160 CHANGI ROAD ,1.3167232592555,103.902443640278,HEXACUBE,HEXACUBE,419728
292 BUKIT BATOK EAST AVENUE 6 ,1.34447136304156,103.755394615486,SKYPEAK @ BUKIT BATOK,SKYPEAK @ BUKIT BATOK,650292
330 ANCHORVALE STREET ,1.3968497990014,103.889246755784,ANCHORVALE HARVEST,ANCHORVALE HARVEST,540330
310 GEYLANG ROAD,1.31245131450842,103.879622127227,NIL,310 GEYLANG ROAD SINGAPORE 389349,389349
49 ADMIRALTY ROAD WEST,1.4613885444488,103.818111265911,COCHRANE LODGE II,COCHRANE LODGE II,757444
9 BISHAN PLACE ,1.3501820033849,103.848515664081,CITIBANK BISHAN JUNCTION 8,CITIBANK BISHAN JUNCTION 8,579837
739A BEDOK RESERVOIR ROAD ,1.33824203227296,103.923303932165,RESERVOIR VILLAGE,RESERVOIR VILLAGE,471739
2 JALAN LOKAM ,1.34560719747232,103.882695128109,KENSINGTON SQUARE,KENSINGTON SQUARE,537846
293 HOLLAND ROAD,1.31754555939886,103.785850542515,COLD STORAGE JELITA,COLD STORAGE JELITA,278628
133 NEW BRIDGE ROAD ,1.28526967945116,103.845037770312,LAWNET & CRIMSONLOGIC SERVICE BUREAU,LAWNET & CRIMSONLOGIC SERVICE BUREAU,059413
612 PUNGGOL DRIVE ,1.40416431665459,103.909117742952,DBS NTUC 612 PUNGGOL DRIVE,DBS NTUC 612 PUNGGOL DRIVE,821612
233 ANG MO KIO AVENUE 3 ,1.36754924977907,103.836740628478,KEBUN BARU PALM VIEW,KEBUN BARU PALM VIEW,560233
2 SERANGOON ROAD ,1.30462871949255,103.852226984633,TEKKA PLACE,TEKKA PLACE,218227
50 WOODLANDS INDUSTRIAL PARK E4 ,1.45025875777465,103.794823954933,WOODLANDS LODGE ONE,WOODLANDS LODGE ONE,757388
90 HOUGANG AVENUE 10 ,1.37231186447501,103.893661609307,SUNFLOWER PRESCHOOL @ HOUGANG (PTE. LTD.),SUNFLOWER PRESCHOOL @ HOUGANG (PTE. LTD.),538766
506 TAMPINES CENTRAL 1 ,1.35595238706011,103.945937400867,NIL,506 TAMPINES CENTRAL 1 SINGAPORE 520506,520506
71 KALLANG BAHRU ,1.3209929422065,103.870389998344,NIL,71 KALLANG BAHRU SINGAPORE 330071,330071
91 TELOK BLANGAH STREET 31 ,1.27627970533812,103.806955809842,TELOK BLANGAH PARCVIEW,TELOK BLANGAH PARCVIEW,100091
2 BAYFRONT AVENUE ,1.28423496027027,103.858982282698,THE SHOPPES AT MARINA BAY SANDS,THE SHOPPES AT MARINA BAY SANDS,018972
8A MARINA BOULEVARD ,1.28023825446086,103.853369662547,MARINA BAY LINK MALL,MARINA BAY LINK MALL,018984
146 JALAN BUKIT MERAH ,1.27774718607366,103.830993209613,ZERO HOSTEL,ZERO HOSTEL,160146
27 WOODLANDS SECTOR 1 ,1.45464655649548,103.804476731799,WOODLANDS DORMITORY,WOODLANDS DORMITORY,738252
100 HOUGANG AVENUE 10 ,1.37177996112812,103.894165380603,DBS NTUC KANG KAR MALL,DBS NTUC KANG KAR MALL,538767
5 TANJONG PAGAR PLAZA ,1.27624052001347,103.843006115698,NIL,5 TANJONG PAGAR PLAZA SINGAPORE 081005,081005
302 TIONG BAHRU ROAD ,1.28633177192832,103.827550771424,DBS POSB TIONG BAHRU PLAZA,DBS POSB TIONG BAHRU PLAZA,168732
201D TAMPINES STREET 21 ,1.35226231425316,103.953586491358,NIL,201D TAMPINES STREET 21 SINGAPORE 524201,524201
19 TOH GUAN ROAD EAST ,1.33833282914969,103.753535227945,TOH GUAN DORMITORY,TOH GUAN DORMITORY,608568
11 KRANJI CLOSE ,1.42816791062135,103.752608291345,NIL,11 KRANJI CLOSE SINGAPORE 737673,737673
19 SHELFORD ROAD ,1.32686143130016,103.812305598569,NIL,19 SHELFORD ROAD SINGAPORE 288408,288408
21 GHIM MOH ROAD ,1.31010302594118,103.788545950724,NIL,21 GHIM MOH ROAD SINGAPORE 270021,270021
9 TAMPINES STREET 32 ,1.35459392882388,103.960153484359,FC/MARKET,FC/MARKET,529286
350 ORCHARD ROAD ,1.30586800624384,103.831518269245,SHAW THEATRES LIDO,SHAW THEATRES LIDO,238868
48 TOH GUAN ROAD EAST ,1.33677373268472,103.75436219411,ENTERPRISE HUB,ENTERPRISE HUB,608586
108 PUNGGOL FIELD ,1.39649861628108,103.908866307025,UOB PUNGGOL FIELD,UOB PUNGGOL FIELD,820108
159 BUKIT BATOK STREET 11 ,1.34857537707331,103.742708640493,JUST KIDS LEARNING PLACE PTE LTD,JUST KIDS LEARNING PLACE PTE LTD,650159
7 GREENDALE AVENUE,1.33166476661284,103.807033788637,GREENDALE COURT,GREENDALE COURT,289504
15 DEMPSEY ROAD,1.30518823313112,103.810314282281,DEMPSEY CLUSTER (TANGLIN VILLAGE),DEMPSEY CLUSTER (TANGLIN VILLAGE),249675
448 GEYLANG ROAD,1.31317460794729,103.8836465666,GEYLANG CONSERVATION AREA,GEYLANG CONSERVATION AREA,389407
399 YUNG SHENG ROAD,1.33484487471259,103.720462024278,DBS NTUC TAMAN JURONG SHOPPING CENTRE,DBS NTUC TAMAN JURONG SHOPPING CENTRE,610399
12 MARINA VIEW ,1.27836304614879,103.850957393439,THE WESTIN SINGAPORE,THE WESTIN SINGAPORE,018961
6 EU TONG SEN STREET ,1.2888737988701,103.846797382693,NANYANG INSTITUTE OF MANAGEMENT,NANYANG INSTITUTE OF MANAGEMENT,059817
808 FRENCH ROAD ,1.3088060941423,103.861311954595,KITCHENER COMPLEX,KITCHENER COMPLEX,200808
1 FUSIONOPOLIS WAY ,1.29929406596036,103.787404058784,SPRING SINGAPORE (TECHNOLOGY INNOVATION DIVISION),SPRING SINGAPORE (TECHNOLOGY INNOVATION DIVISION),138632
12 KALLANG AVENUE ,1.30971120678144,103.864326436447,DBS APERIA BRANCH,DBS APERIA BRANCH,339511
159A HOUGANG STREET 11 ,1.35209060355776,103.879314590828,FOOD CENTRE,FOOD CENTRE,531159
41 SUNSET WAY ,1.32355286918436,103.767515486547,CLEMENTI ARCADE,CLEMENTI ARCADE,597071
5 BANDA STREET ,1.28119737026913,103.843437320613,NIL,5 BANDA STREET SINGAPORE 050005,050005
845 YISHUN STREET 81 ,1.416079404249,103.835019190337,DBS YISHUN STREET 81,DBS YISHUN STREET 81,760845
182 WOODLANDS STREET 13 ,1.43515895067377,103.776023343198,MARSILING GREENVIEW,MARSILING GREENVIEW,730182
78 SERANGOON GARDEN WAY ,1.36428136996969,103.86513393838,SERANGOON GARDEN ESTATE,SERANGOON GARDEN ESTATE,555974
256 BANGKIT ROAD ,1.37904775889844,103.773004042544,BUKIT PANJANG NEIGHBOURHOOD CENTRE,BUKIT PANJANG NEIGHBOURHOOD CENTRE,670256
13 STAMFORD ROAD ,1.29307884763132,103.851261982149,CAPITOL PIAZZA,CAPITOL PIAZZA,178905
211 HOLLAND AVENUE ,1.31025542158588,103.795350441035,MINDCHAMPS PRESCHOOL @ HOLLAND V PTE. LTD.,MINDCHAMPS PRESCHOOL @ HOLLAND V PTE. LTD.,278967
6 POTONG PASIR AVENUE 2 ,1.33258296864442,103.867139786368,DBS POTONG PASIR BRANCH,DBS POTONG PASIR BRANCH,358361
866A TAMPINES STREET 83 ,1.35539306251992,103.934429348334,DBS NTUC TAMPINES CENTRAL COMMUNITY CLUB,DBS NTUC TAMPINES CENTRAL COMMUNITY CLUB,521866
410 CHOA CHU KANG AVENUE 3 ,1.38062798768557,103.741520103731,KEAT HONG LAUREL,KEAT HONG LAUREL,680410
533 CHOA CHU KANG STREET 51 ,1.39207387937105,103.743099576162,CHERIE HEARTS HOLDINGS PTE. LTD.,CHERIE HEARTS HOLDINGS PTE. LTD.,680533
3 YUAN CHING ROAD ,1.32554465969069,103.725574633362,NIL,3 YUAN CHING ROAD SINGAPORE 618642,618642
573 WOODLANDS DRIVE 16 ,1.43109807246887,103.798507621177,WOODLANDS GLEN,WOODLANDS GLEN,730573
60 PAYA LEBAR ROAD ,1.31881486980278,103.892580778242,OCBC PAYA LEBAR SQUARE,OCBC PAYA LEBAR SQUARE,409051
460 ALEXANDRA ROAD,1.2734502483595,103.801682844021,DBS ALEXANDRA BRANCH,DBS ALEXANDRA BRANCH,119963
587 BUKIT TIMAH ROAD,1.32383369976841,103.810002032513,DBS NTUC CORONATION SHOPPING PLAZA,DBS NTUC CORONATION SHOPPING PLAZA,269707
142 TECK WHYE LANE ,1.38079049641025,103.75195441174,NIL,142 TECK WHYE LANE SINGAPORE 680142,680142
1 WOODLANDS ROAD ,1.38055127973087,103.760106974822,MINDCHAMPS PRESCHOOL @JUNCTION 10 PTE LIMITED,MINDCHAMPS PRESCHOOL @JUNCTION 10 PTE LIMITED,677899
671 EDGEFIELD PLAINS ,1.40566048045603,103.911991277154,WATERWAY BANKS,WATERWAY BANKS,820671
10 WOODLANDS INDUSTRIAL PARK E1,1.45334363120531,103.795682398584,NIL,10 WOODLANDS INDUSTRIAL PARK E1 SINGAPORE 757733,757733
140 TECK WHYE LANE ,1.38001805825626,103.753148377762,NIL,140 TECK WHYE LANE SINGAPORE 680140,680140
293 YISHUN STREET 22 ,1.43611425409216,103.837605235958,NIL,293 YISHUN STREET 22 SINGAPORE 760293,760293
108 CLEMENTI STREET 11 ,1.32212392900686,103.770265903384,SUNSET WAY RESIDENCE,SUNSET WAY RESIDENCE,120108
468B ADMIRALTY DRIVE ,1.45000861656514,103.814110899773,BLUE RIVERVIEW,BLUE RIVERVIEW,752468
90 BRAS BASAH ROAD ,1.29309408587041,103.855583933723,DBS ESPLANADE MRT STATION,DBS ESPLANADE MRT STATION,189562
3 IRVING ROAD ,1.33579982244774,103.886875022095,TAI SENG CENTRE,TAI SENG CENTRE,369522
19 SERANGOON NORTH AVENUE 5 ,1.37565390082777,103.872017821492,SERANGOON NORTH AMENITY CENTRE,SERANGOON NORTH AMENITY CENTRE,554913
